StoreId,Name,Latitude,Longitude,Address,Street,City,State,Zip_Code,County,Phone,Open Hours,Url,Provider,Updated Date,Country
403,Trader Joe'S Dallas - Lower Greenville (403),32.81481,-96.77019,2001 Greenville Ave Dallas TX 75206,2001 Greenville Ave,Dallas,TX,75206,Dallas,469-334-0614,Monday :- 08:00 - 21:00 | Tuesday :- 08:00 - 21:00 | Wednesday :- 08:00 - 21:00 | Thursday :- 08:00 - 21:00 | Friday :- 08:00 - 21:00 | Saturday :- 08:00 - 21:00 | Sunday :- 08:00 - 21:00,https://locations.traderjoes.com/tx/dallas/403,Trader Joes,1/21/2020,USA
53,Trader Joe'S Glendale (53),34.159195,-118.25487,103 E Glenoaks Blvd Glendale CA 91207,103 E Glenoaks Blvd,Glendale,CA,91207,Los Angeles,818-507-8192,Monday :- 08:00 - 21:00 | Tuesday :- 08:00 - 21:00 | Wednesday :- 08:00 - 21:00 | Thursday :- 08:00 - 21:00 | Friday :- 08:00 - 21:00 | Saturday :- 08:00 - 21:00 | Sunday :- 08:00 - 21:00,https://locations.traderjoes.com/ca/glendale/53,Trader Joes,1/21/2020,USA
93,Trader Joe'S Tempe (93),33.36173959,-111.9112055,6460 S Mcclintock Dr Tempe AZ 85283,6460 S Mcclintock Dr,Tempe,AZ,85283,Maricopa,480-838-4142,Monday :- 08:00 - 21:00 | Tuesday :- 08:00 - 21:00 | Wednesday :- 08:00 - 21:00 | Thursday :- 08:00 - 21:00 | Friday :- 08:00 - 21:00 | Saturday :- 08:00 - 21:00 | Sunday :- 08:00 - 21:00,https://locations.traderjoes.com/az/tempe/93,Trader Joes,1/21/2020,USA
682,Trader Joe'S Northbrook (682),42.14991,-87.80005,127 Skokie Blvd Northbrook IL 60062,127 Skokie Blvd,Northbrook,IL,60062,Cook,847-480-9280,Monday :- 08:00 - 21:00 | Tuesday :- 08:00 - 21:00 | Wednesday :- 08:00 - 21:00 | Thursday :- 08:00 - 21:00 | Friday :- 08:00 - 21:00 | Saturday :- 08:00 - 21:00 | Sunday :- 08:00 - 21:00,https://locations.traderjoes.com/il/northbrook/682,Trader Joes,1/21/2020,USA
150,Trader Joe'S Bend (150),44.10277,-121.29912,63455 N Hwy 97 Bend OR 97701,63455 N Hwy 97,Bend,OR,97701,Deschutes,541-312-4198,Monday :- 08:00 - 21:00 | Tuesday :- 08:00 - 21:00 | Wednesday :- 08:00 - 21:00 | Thursday :- 08:00 - 21:00 | Friday :- 08:00 - 21:00 | Saturday :- 08:00 - 21:00 | Sunday :- 08:00 - 21:00,https://locations.traderjoes.com/or/bend/150,Trader Joes,1/21/2020,USA
554,Trader Joe'S Hewlett (554),40.638925,-73.70162,1280 West Broadway Hewlett NY 11557,1280 West Broadway,Hewlett,NY,11557,Nassau,516-569-7191,Monday :- 08:00 - 21:00 | Tuesday :- 08:00 - 21:00 | Wednesday :- 08:00 - 21:00 | Thursday :- 08:00 - 21:00 | Friday :- 08:00 - 21:00 | Saturday :- 08:00 - 21:00 | Sunday :- 08:00 - 21:00,https://locations.traderjoes.com/ny/hewlett/554,Trader Joes,1/21/2020,USA
687,Trader Joe'S Arlington Heights (687),42.1139313,-87.98233826,17 W Rand Rd Arlington Heights IL 60004,17 W Rand Rd,Arlington Heights,IL,60004,Cook,847-506-0752,Monday :- 08:00 - 21:00 | Tuesday :- 08:00 - 21:00 | Wednesday :- 08:00 - 21:00 | Thursday :- 08:00 - 21:00 | Friday :- 08:00 - 21:00 | Saturday :- 08:00 - 21:00 | Sunday :- 08:00 - 21:00,https://locations.traderjoes.com/il/arlington-heights/687,Trader Joes,1/21/2020,USA
49,Trader Joe'S Sherman Oaks (49),34.15760308,-118.4407615,14119 Riverside Dr Sherman Oaks CA 91423,14119 Riverside Dr,Sherman Oaks,CA,91423,Los Angeles,818-789-2771,Monday :- 08:00 - 21:00 | Tuesday :- 08:00 - 21:00 | Wednesday :- 08:00 - 21:00 | Thursday :- 08:00 - 21:00 | Friday :- 08:00 - 21:00 | Saturday :- 08:00 - 21:00 | Sunday :- 08:00 - 21:00,https://locations.traderjoes.com/ca/sherman-oaks/49,Trader Joes,1/21/2020,USA
282,Trader Joe'S Paradise Valley (282),33.58278,-111.978729,4726 East Shea Blvd Phoenix AZ 85028,4726 East Shea Blvd,Phoenix,AZ,85028,Maricopa,602-485-7788,Monday :- 08:00 - 21:00 | Tuesday :- 08:00 - 21:00 | Wednesday :- 08:00 - 21:00 | Thursday :- 08:00 - 21:00 | Friday :- 08:00 - 21:00 | Saturday :- 08:00 - 21:00 | Sunday :- 08:00 - 21:00,https://locations.traderjoes.com/az/phoenix/282,Trader Joes,1/21/2020,USA
512,Trader Joe'S Hadley (512),42.35822714,-72.54984429,375 Russell St Hadley MA 01035,375 Russell St,Hadley,MA,01035,Hampshire,413-587-3260,Monday :- 09:00 - 21:00 | Tuesday :- 09:00 - 21:00 | Wednesday :- 09:00 - 21:00 | Thursday :- 09:00 - 21:00 | Friday :- 09:00 - 21:00 | Saturday :- 09:00 - 21:00 | Sunday :- 09:00 - 21:00,https://locations.traderjoes.com/ma/hadley/512,Trader Joes,1/21/2020,USA
452,Trader Joe'S Austin - Seaholm (452),30.2674894,-97.7526582,"211 Walter Seaholm Dr, Ste 100 Austin TX 78701","211 Walter Seaholm Dr, Ste 100",Austin,TX,78701,Travis,512-474-2263,Monday :- 09:00 - 22:00 | Tuesday :- 09:00 - 22:00 | Wednesday :- 09:00 - 22:00 | Thursday :- 09:00 - 22:00 | Friday :- 09:00 - 22:00 | Saturday :- 09:00 - 22:00 | Sunday :- 09:00 - 22:00,https://locations.traderjoes.com/tx/austin/452,Trader Joes,1/21/2020,USA
192,Trader Joe'S Sunset Blvd (192),34.09799,-118.36506,8000 W Sunset Blvd Los Angeles CA 90046,8000 W Sunset Blvd,Los Angeles,CA,90046,Los Angeles,323-822-7663,Monday :- 09:00 - 22:00 | Tuesday :- 09:00 - 22:00 | Wednesday :- 09:00 - 22:00 | Thursday :- 09:00 - 22:00 | Friday :- 09:00 - 22:00 | Saturday :- 09:00 - 22:00 | Sunday :- 09:00 - 22:00,https://locations.traderjoes.com/ca/los-angeles/192,Trader Joes,1/21/2020,USA
510,Trader Joe'S Boston - Back Bay (510),42.34836,-71.08373,899 Boylston St Boston MA 02115,899 Boylston St,Boston,MA,02115,Suffolk,617-262-6505,Monday :- 09:00 - 22:00 | Tuesday :- 09:00 - 22:00 | Wednesday :- 09:00 - 22:00 | Thursday :- 09:00 - 22:00 | Friday :- 09:00 - 22:00 | Saturday :- 09:00 - 22:00 | Sunday :- 09:00 - 22:00,https://locations.traderjoes.com/ma/boston/510,Trader Joes,1/21/2020,USA
645,Trader Joe'S Bethesda (645),38.97804071,-77.09103321,6831 Wisconsin Ave Bethesda MD 20815,6831 Wisconsin Ave,Bethesda,MD,20815,Montgomery,301-907-0982,Monday :- 08:00 - 21:00 | Tuesday :- 08:00 - 21:00 | Wednesday :- 08:00 - 21:00 | Thursday :- 08:00 - 21:00 | Friday :- 08:00 - 21:00 | Saturday :- 08:00 - 21:00 | Sunday :- 08:00 - 21:00,https://locations.traderjoes.com/md/bethesda/645,Trader Joes,1/21/2020,USA
6,Trader Joe'S Santa Monica (6),34.0264375,-118.45622,3212 Pico Blvd Santa Monica CA 90405,3212 Pico Blvd,Santa Monica,CA,90405,Los Angeles,310-581-0253,Monday :- 08:00 - 21:00 | Tuesday :- 08:00 - 21:00 | Wednesday :- 08:00 - 21:00 | Thursday :- 08:00 - 21:00 | Friday :- 08:00 - 21:00 | Saturday :- 08:00 - 21:00 | Sunday :- 08:00 - 21:00,https://locations.traderjoes.com/ca/santa-monica/6,Trader Joes,1/21/2020,USA
453,Trader Joe'S Austin - Rollingwood (453),30.27117959,-97.78888488,2805 Bee Cave Rd Austin TX 78746,2805 Bee Cave Rd,Austin,TX,78746,Travis,512-306-1032,Monday :- 09:00 - 21:00 | Tuesday :- 09:00 - 21:00 | Wednesday :- 09:00 - 21:00 | Thursday :- 09:00 - 21:00 | Friday :- 09:00 - 21:00 | Saturday :- 09:00 - 21:00 | Sunday :- 09:00 - 21:00,https://locations.traderjoes.com/tx/austin/453,Trader Joes,1/21/2020,USA
140,Trader Joe'S Redmond (140),47.67485,-122.1277,15932 Redmond Way Redmond WA 98052,15932 Redmond Way,Redmond,WA,98052,King,425-883-1624,Monday :- 08:00 - 21:00 | Tuesday :- 08:00 - 21:00 | Wednesday :- 08:00 - 21:00 | Thursday :- 08:00 - 21:00 | Friday :- 08:00 - 21:00 | Saturday :- 08:00 - 21:00 | Sunday :- 08:00 - 21:00,https://locations.traderjoes.com/wa/redmond/140,Trader Joes,1/21/2020,USA
766,Trader Joe'S Tampa (766),27.9375525,-82.506425,3808 W Swann Ave Tampa FL 33609,3808 W Swann Ave,Tampa,FL,33609,Hillsborough,813-872-6846,Monday :- 08:00 - 21:00 | Tuesday :- 08:00 - 21:00 | Wednesday :- 08:00 - 21:00 | Thursday :- 08:00 - 21:00 | Friday :- 08:00 - 21:00 | Saturday :- 08:00 - 21:00 | Sunday :- 08:00 - 21:00,https://locations.traderjoes.com/fl/tampa/766,Trader Joes,1/21/2020,USA
406,Trader Joe'S Southlake (406),32.94097184,-97.12908837,1492 E Southlake Blvd Southlake TX 76092,1492 E Southlake Blvd,Southlake,TX,76092,Tarrant,817-251-0360,Monday :- 08:00 - 21:00 | Tuesday :- 08:00 - 21:00 | Wednesday :- 08:00 - 21:00 | Thursday :- 08:00 - 21:00 | Friday :- 08:00 - 21:00 | Saturday :- 08:00 - 21:00 | Sunday :- 08:00 - 21:00,https://locations.traderjoes.com/tx/southlake/406,Trader Joes,1/21/2020,USA
225,Trader Joe'S San Francisco - Pacific Place (225),37.78568,-122.4057,10 4Th Street San Francisco CA 94103,10 4Th Street,San Francisco,CA,94103,San Francisco,415-536-7801,Monday :- 08:00 - 21:00 | Tuesday :- 08:00 - 21:00 | Wednesday :- 08:00 - 21:00 | Thursday :- 08:00 - 21:00 | Friday :- 08:00 - 21:00 | Saturday :- 08:00 - 21:00 | Sunday :- 08:00 - 21:00,https://locations.traderjoes.com/ca/san-francisco/225,Trader Joes,1/21/2020,USA
541,Trader Joe'S Union Square - Wine Store (541),40.73378756,-73.98835073,138 E 14Th St New York NY 10003,138 E 14Th St,New York,NY,10003,New York,212-529-6326,Monday :- 09:00 - 21:00 | Tuesday :- 09:00 - 21:00 | Wednesday :- 09:00 - 21:00 | Thursday :- 09:00 - 21:00 | Friday :- 09:00 - 21:00 | Saturday :- 09:00 - 21:00 | Sunday :- 09:00 - 21:00,https://locations.traderjoes.com/ny/new-york/541,Trader Joes,1/21/2020,USA
86,Trader Joe'S Las Vegas - Summerlin (86),36.18137,-115.25797,7575 W Washington Las Vegas NV 89128,7575 W Washington,Las Vegas,NV,89128,Clark,702-242-8240,Monday :- 08:00 - 21:00 | Tuesday :- 08:00 - 21:00 | Wednesday :- 08:00 - 21:00 | Thursday :- 08:00 - 21:00 | Friday :- 08:00 - 21:00 | Saturday :- 08:00 - 21:00 | Sunday :- 08:00 - 21:00,https://locations.traderjoes.com/nv/las-vegas/86,Trader Joes,1/21/2020,USA
66,Trader Joe'S Pleasanton (66),37.69472997,-121.8781252,3903 Santa Rita Road Pleasanton CA 94588,3903 Santa Rita Road,Pleasanton,CA,94588,Alameda,925-468-0763,Monday :- 08:00 - 21:00 | Tuesday :- 08:00 - 21:00 | Wednesday :- 08:00 - 21:00 | Thursday :- 08:00 - 21:00 | Friday :- 08:00 - 21:00 | Saturday :- 08:00 - 21:00 | Sunday :- 08:00 - 21:00,https://locations.traderjoes.com/ca/pleasanton/66,Trader Joes,1/21/2020,USA
120,Trader Joe'S Chula Vista (120),32.65165512,-116.9670012,878 Eastlake Pkwy Chula Vista CA 91914,878 Eastlake Pkwy,Chula Vista,CA,91914,San Diego,619-656-5370,Monday :- 08:00 - 21:00 | Tuesday :- 08:00 - 21:00 | Wednesday :- 08:00 - 21:00 | Thursday :- 08:00 - 21:00 | Friday :- 08:00 - 21:00 | Saturday :- 08:00 - 21:00 | Sunday :- 08:00 - 21:00,https://locations.traderjoes.com/ca/chula-vista/120,Trader Joes,1/21/2020,USA
702,Trader Joe'S Evanston (702),42.03962663,-87.68048533,1211 Chicago Avenue Evanston IL 60202,1211 Chicago Avenue,Evanston,IL,60202,Cook,847-733-0690,Monday :- 08:00 - 21:00 | Tuesday :- 08:00 - 21:00 | Wednesday :- 08:00 - 21:00 | Thursday :- 08:00 - 21:00 | Friday :- 08:00 - 21:00 | Saturday :- 08:00 - 21:00 | Sunday :- 08:00 - 21:00,https://locations.traderjoes.com/il/evanston/702,Trader Joes,1/21/2020,USA
239,Trader Joe'S Santa Maria (239),34.9382309,-120.4194524,1303 S Bradley Rd Santa Maria CA 93454,1303 S Bradley Rd,Santa Maria,CA,93454,Santa Barbara,805-925-1657,Monday :- 08:00 - 21:00 | Tuesday :- 08:00 - 21:00 | Wednesday :- 08:00 - 21:00 | Thursday :- 08:00 - 21:00 | Friday :- 08:00 - 21:00 | Saturday :- 08:00 - 21:00 | Sunday :- 08:00 - 21:00,https://locations.traderjoes.com/ca/santa-maria/239,Trader Joes,1/21/2020,USA
80,Trader Joe'S Roseville (80),38.74434086,-121.2743561,1117 Roseville Square Roseville CA 95678,1117 Roseville Square,Roseville,CA,95678,Placer,916-784-9084,Monday :- 08:00 - 21:00 | Tuesday :- 08:00 - 21:00 | Wednesday :- 08:00 - 21:00 | Thursday :- 08:00 - 21:00 | Friday :- 08:00 - 21:00 | Saturday :- 08:00 - 21:00 | Sunday :- 08:00 - 21:00,https://locations.traderjoes.com/ca/roseville/80,Trader Joes,1/21/2020,USA
652,Trader Joe'S Silver Spring (652),39.03152311,-77.00435641,10741 Columbia Pike Silver Spring MD 20901,10741 Columbia Pike,Silver Spring,MD,20901,Montgomery,301-681-1675,Monday :- 08:00 - 21:00 | Tuesday :- 08:00 - 21:00 | Wednesday :- 08:00 - 21:00 | Thursday :- 08:00 - 21:00 | Friday :- 08:00 - 21:00 | Saturday :- 08:00 - 21:00 | Sunday :- 08:00 - 21:00,https://locations.traderjoes.com/md/silver-spring/652,Trader Joes,1/21/2020,USA
675,Trader Joe'S Bloomfield Hills (675),42.54419449,-83.28515163,6536 Telegraph Rd Bloomfield Hills MI 48301,6536 Telegraph Rd,Bloomfield Hills,MI,48301,Oakland,248-855-2283,Monday :- 08:00 - 21:00 | Tuesday :- 08:00 - 21:00 | Wednesday :- 08:00 - 21:00 | Thursday :- 08:00 - 21:00 | Friday :- 08:00 - 21:00 | Saturday :- 08:00 - 21:00 | Sunday :- 08:00 - 21:00,https://locations.traderjoes.com/mi/bloomfield-hills/675,Trader Joes,1/21/2020,USA
232,Trader Joe'S San Jose - Bollinger (232),37.31223417,-122.0313675,7250 Bollinger Rd San Jose CA 95129,7250 Bollinger Rd,San Jose,CA,95129,Santa Clara,408-873-7384,Monday :- 08:00 - 21:00 | Tuesday :- 08:00 - 21:00 | Wednesday :- 08:00 - 21:00 | Thursday :- 08:00 - 21:00 | Friday :- 08:00 - 21:00 | Saturday :- 08:00 - 21:00 | Sunday :- 08:00 - 21:00,https://locations.traderjoes.com/ca/san-jose/232,Trader Joes,1/21/2020,USA
636,Trader Joe'S Wilmington (636),39.83369808,-75.54285597,5605 Concord Pike Wilmington DE 19803,5605 Concord Pike,Wilmington,DE,19803,New Castle,302-478-8494,Monday :- 08:00 - 21:00 | Tuesday :- 08:00 - 21:00 | Wednesday :- 08:00 - 21:00 | Thursday :- 08:00 - 21:00 | Friday :- 08:00 - 21:00 | Saturday :- 08:00 - 21:00 | Sunday :- 08:00 - 21:00,https://locations.traderjoes.com/de/wilmington/636,Trader Joes,1/21/2020,USA
504,Trader Joe'S Needham Heights (504),42.29224464,-71.23514429,958 Highland Ave Needham MA 02494,958 Highland Ave,Needham,MA,02494,Norfolk,781-449-6993,Monday :- 09:00 - 21:00 | Tuesday :- 09:00 - 21:00 | Wednesday :- 09:00 - 21:00 | Thursday :- 09:00 - 21:00 | Friday :- 09:00 - 21:00 | Saturday :- 09:00 - 21:00 | Sunday :- 09:00 - 21:00,https://locations.traderjoes.com/ma/needham/504,Trader Joes,1/21/2020,USA
724,Trader Joe'S Bloomington (724),44.85876461,-93.33312438,4270 W 78Th St Bloomington MN 55435,4270 W 78Th St,Bloomington,MN,55435,Hennepin,952-835-8640,Monday :- 08:00 - 21:00 | Tuesday :- 08:00 - 21:00 | Wednesday :- 08:00 - 21:00 | Thursday :- 08:00 - 21:00 | Friday :- 08:00 - 21:00 | Saturday :- 08:00 - 21:00 | Sunday :- 08:00 - 21:00,https://locations.traderjoes.com/mn/bloomington/724,Trader Joes,1/21/2020,USA
244,Trader Joe'S Huntington Harbour (244),33.71789069,-118.0501166,16821 Algonquin St Huntington Beach CA 92649,16821 Algonquin St,Huntington Beach,CA,92649,Orange,714-846-7307,Monday :- 08:00 - 21:00 | Tuesday :- 08:00 - 21:00 | Wednesday :- 08:00 - 21:00 | Thursday :- 08:00 - 21:00 | Friday :- 08:00 - 21:00 | Saturday :- 08:00 - 21:00 | Sunday :- 08:00 - 21:00,https://locations.traderjoes.com/ca/huntington-beach/244,Trader Joes,1/21/2020,USA
768,Trader Joe'S Orlando Ã‚?? Dr. Phillips (768),28.45002809,-81.49736819,8323 Sand Lake Rd Orlando FL 32819,8323 Sand Lake Rd,Orlando,FL,32819,Orange,407-345-0611,Monday :- 08:00 - 21:00 | Tuesday :- 08:00 - 21:00 | Wednesday :- 08:00 - 21:00 | Thursday :- 08:00 - 21:00 | Friday :- 08:00 - 21:00 | Saturday :- 08:00 - 21:00 | Sunday :- 08:00 - 21:00,https://locations.traderjoes.com/fl/orlando/768,Trader Joes,1/21/2020,USA
176,Trader Joe'S Yorba Linda (176),33.88875585,-117.7919194,19655 Yorba Linda Blvd Yorba Linda CA 92886,19655 Yorba Linda Blvd,Yorba Linda,CA,92886,Orange,714-970-0116,Monday :- 08:00 - 21:00 | Tuesday :- 08:00 - 21:00 | Wednesday :- 08:00 - 21:00 | Thursday :- 08:00 - 21:00 | Friday :- 08:00 - 21:00 | Saturday :- 08:00 - 21:00 | Sunday :- 08:00 - 21:00,https://locations.traderjoes.com/ca/yorba-linda/176,Trader Joes,1/21/2020,USA
191,Trader Joe'S Tucson - Campbell & Limberlost (191),32.28349,-110.94383,4209 N Campbell Ave Tucson AZ 85719,4209 N Campbell Ave,Tucson,AZ,85719,Pima,520-325-0069,Monday :- 08:00 - 21:00 | Tuesday :- 08:00 - 21:00 | Wednesday :- 08:00 - 21:00 | Thursday :- 08:00 - 21:00 | Friday :- 08:00 - 21:00 | Saturday :- 08:00 - 21:00 | Sunday :- 08:00 - 21:00,https://locations.traderjoes.com/az/tucson/191,Trader Joes,1/21/2020,USA
610,Trader Joe'S Clifton (610),40.8374625,-74.1518225,259 Allwood Road Clifton NJ 07012,259 Allwood Road,Clifton,NJ,07012,Passaic,973-777-5020,Monday :- 08:00 - 22:00 | Tuesday :- 08:00 - 22:00 | Wednesday :- 08:00 - 22:00 | Thursday :- 08:00 - 22:00 | Friday :- 08:00 - 22:00 | Saturday :- 08:00 - 22:00 | Sunday :- 08:00 - 22:00,https://locations.traderjoes.com/nj/clifton/610,Trader Joes,1/21/2020,USA
557,Trader Joe'S Queens (557),40.71174959,-73.85919694,9030 Metropolitan Ave Rego Park NY 11374,9030 Metropolitan Ave,Rego Park,NY,11374,Queens,718-275-1791,Monday :- 08:00 - 22:00 | Tuesday :- 08:00 - 22:00 | Wednesday :- 08:00 - 22:00 | Thursday :- 08:00 - 22:00 | Friday :- 08:00 - 22:00 | Saturday :- 08:00 - 22:00 | Sunday :- 08:00 - 22:00,https://locations.traderjoes.com/ny/rego-park/557,Trader Joes,1/21/2020,USA
546,Trader Joe'S East Village (546),40.7308276,-73.9809552,436 East 14Th St New York NY 10009,436 East 14Th St,New York,NY,10009,New York,212-777-9412,Monday :- 08:00 - 22:00 | Tuesday :- 08:00 - 22:00 | Wednesday :- 08:00 - 22:00 | Thursday :- 08:00 - 22:00 | Friday :- 08:00 - 22:00 | Saturday :- 08:00 - 22:00 | Sunday :- 08:00 - 22:00,https://locations.traderjoes.com/ny/new-york/546,Trader Joes,1/21/2020,USA
40,Trader Joe'S West Hollywood (40),34.09074,-118.34909,7310 Santa Monica Blvd West Hollywood CA 90046,7310 Santa Monica Blvd,West Hollywood,CA,90046,Los Angeles,323-969-8048,Monday :- 09:00 - 21:00 | Tuesday :- 09:00 - 21:00 | Wednesday :- 09:00 - 21:00 | Thursday :- 09:00 - 21:00 | Friday :- 09:00 - 21:00 | Saturday :- 09:00 - 21:00 | Sunday :- 09:00 - 21:00,https://locations.traderjoes.com/ca/west-hollywood/40,Trader Joes,1/21/2020,USA
705,Trader Joe'S Schaumburg (705),42.05054208,-88.04415177,1426 E Golf Rd Schaumburg IL 60173,1426 E Golf Rd,Schaumburg,IL,60173,Cook,847-619-0095,Monday :- 08:00 - 21:00 | Tuesday :- 08:00 - 21:00 | Wednesday :- 08:00 - 21:00 | Thursday :- 08:00 - 21:00 | Friday :- 08:00 - 21:00 | Saturday :- 08:00 - 21:00 | Sunday :- 08:00 - 21:00,https://locations.traderjoes.com/il/schaumburg/705,Trader Joes,1/21/2020,USA
527,Trader Joe'S South Burlington (527),44.46390214,-73.18075643,200 Dorset St South Burlington VT 05403,200 Dorset St,South Burlington,VT,05403,Chittenden,802-658-4500,Monday :- 09:00 - 21:00 | Tuesday :- 09:00 - 21:00 | Wednesday :- 09:00 - 21:00 | Thursday :- 09:00 - 21:00 | Friday :- 09:00 - 21:00 | Saturday :- 09:00 - 21:00 | Sunday :- 09:00 - 21:00,https://locations.traderjoes.com/vt/south-burlington/527,Trader Joes,1/21/2020,USA
558,Trader Joe'S Brooklyn (558),40.68961333,-73.99243,130 Court St Brooklyn NY 11201,130 Court St,Brooklyn,NY,11201,Kings,718-246-8460,Monday :- 08:00 - 22:00 | Tuesday :- 08:00 - 22:00 | Wednesday :- 08:00 - 22:00 | Thursday :- 08:00 - 22:00 | Friday :- 08:00 - 22:00 | Saturday :- 08:00 - 22:00 | Sunday :- 08:00 - 22:00,https://locations.traderjoes.com/ny/brooklyn/558,Trader Joes,1/21/2020,USA
67,Trader Joe'S San Mateo - Grant St (67),37.55457041,-122.3021461,1820-22 S Grant Street San Mateo CA 94402,1820-22 S Grant Street,San Mateo,CA,94402,San Mateo,650-570-6140,Monday :- 08:00 - 21:00 | Tuesday :- 08:00 - 21:00 | Wednesday :- 08:00 - 21:00 | Thursday :- 08:00 - 21:00 | Friday :- 08:00 - 21:00 | Saturday :- 08:00 - 21:00 | Sunday :- 08:00 - 21:00,https://locations.traderjoes.com/ca/san-mateo/67,Trader Joes,1/21/2020,USA
361,Trader Joe'S Meridian (361),43.63194522,-116.3544254,2986 N. Eagle Rd. Meridian ID 83648,2986 N. Eagle Rd.,Meridian,ID,83648,Elmore,208-506-2978,Monday :- 09:00 - 21:00 | Tuesday :- 09:00 - 21:00 | Wednesday :- 09:00 - 21:00 | Thursday :- 09:00 - 21:00 | Friday :- 09:00 - 21:00 | Saturday :- 09:00 - 21:00 | Sunday :- 09:00 - 21:00,https://locations.traderjoes.com/id/meridian/361,Trader Joes,1/21/2020,USA
194,Trader Joe'S Long Beach - Bellflower Blvd (194),33.79690564,-118.1252295,2222 North Bellflower Blvd Long Beach CA 90815,2222 North Bellflower Blvd,Long Beach,CA,90815,Los Angeles,562-596-2514,Monday :- 08:00 - 21:00 | Tuesday :- 08:00 - 21:00 | Wednesday :- 08:00 - 21:00 | Thursday :- 08:00 - 21:00 | Friday :- 08:00 - 21:00 | Saturday :- 08:00 - 21:00 | Sunday :- 08:00 - 21:00,https://locations.traderjoes.com/ca/long-beach/194,Trader Joes,1/21/2020,USA
701,Trader Joe'S Chicago - South Loop (701),41.86800458,-87.62583083,1147 S Wabash Ave Chicago IL 60605,1147 S Wabash Ave,Chicago,IL,60605,Cook,312-588-0489,Monday :- 08:00 - 22:00 | Tuesday :- 08:00 - 22:00 | Wednesday :- 08:00 - 22:00 | Thursday :- 08:00 - 22:00 | Friday :- 08:00 - 22:00 | Saturday :- 08:00 - 22:00 | Sunday :- 08:00 - 22:00,https://locations.traderjoes.com/il/chicago/701,Trader Joes,1/21/2020,USA
147,Trader Joe'S Ballard (147),47.66227878,-122.3736992,4609 14Th Ave Nw Seattle WA 98107,4609 14Th Ave Nw,Seattle,WA,98107,King,206-783-0498,Monday :- 08:00 - 21:00 | Tuesday :- 08:00 - 21:00 | Wednesday :- 08:00 - 21:00 | Thursday :- 08:00 - 21:00 | Friday :- 08:00 - 21:00 | Saturday :- 08:00 - 21:00 | Sunday :- 08:00 - 21:00,https://locations.traderjoes.com/wa/seattle/147,Trader Joes,1/21/2020,USA
172,Trader Joe'S Folsom (172),38.67072343,-121.1578231,850 East Bidwell Folsom CA 95630,850 East Bidwell,Folsom,CA,95630,Sacramento,916-817-8820,Monday :- 08:00 - 21:00 | Tuesday :- 08:00 - 21:00 | Wednesday :- 08:00 - 21:00 | Thursday :- 08:00 - 21:00 | Friday :- 08:00 - 21:00 | Saturday :- 08:00 - 21:00 | Sunday :- 08:00 - 21:00,https://locations.traderjoes.com/ca/folsom/172,Trader Joes,1/21/2020,USA
283,Trader Joe'S Prescott (283),34.54824658,-112.4043001,252 N Lee Blvd Prescott AZ 86303,252 N Lee Blvd,Prescott,AZ,86303,Yavapai,928-443-9075,Monday :- 08:00 - 21:00 | Tuesday :- 08:00 - 21:00 | Wednesday :- 08:00 - 21:00 | Thursday :- 08:00 - 21:00 | Friday :- 08:00 - 21:00 | Saturday :- 08:00 - 21:00 | Sunday :- 08:00 - 21:00,https://locations.traderjoes.com/az/prescott/283,Trader Joes,1/21/2020,USA
543,Trader Joe'S Chelsea (543),40.741682,-73.993695,675 6Th Ave New York NY 10010,675 6Th Ave,New York,NY,10010,New York,212-255-2106,Monday :- 08:00 - 22:00 | Tuesday :- 08:00 - 22:00 | Wednesday :- 08:00 - 22:00 | Thursday :- 08:00 - 22:00 | Friday :- 08:00 - 22:00 | Saturday :- 08:00 - 22:00 | Sunday :- 08:00 - 22:00,https://locations.traderjoes.com/ny/new-york/543,Trader Joes,1/21/2020,USA
31,Trader Joe'S Los Angeles (31),34.06938368,-118.34403,263 S La Brea Ave Los Angeles CA 90036,263 S La Brea Ave,Los Angeles,CA,90036,Los Angeles,323-965-1989,Monday :- 09:00 - 21:00 | Tuesday :- 09:00 - 21:00 | Wednesday :- 09:00 - 21:00 | Thursday :- 09:00 - 21:00 | Friday :- 09:00 - 21:00 | Saturday :- 09:00 - 21:00 | Sunday :- 09:00 - 21:00,https://locations.traderjoes.com/ca/los-angeles/31,Trader Joes,1/21/2020,USA
108,Trader Joe'S El Cerrito (108),37.89872729,-122.2993876,225 El Cerrito Plaza El Cerrito CA 94530,225 El Cerrito Plaza,El Cerrito,CA,94530,Contra Costa,510-524-7609,Monday :- 08:00 - 21:00 | Tuesday :- 08:00 - 21:00 | Wednesday :- 08:00 - 21:00 | Thursday :- 08:00 - 21:00 | Friday :- 08:00 - 21:00 | Saturday :- 08:00 - 21:00 | Sunday :- 08:00 - 21:00,https://locations.traderjoes.com/ca/el-cerrito/108,Trader Joes,1/21/2020,USA
730,Trader Joe'S Atlanta (730),33.77952,-84.36939,931 Monroe Dr Atlanta GA 30308,931 Monroe Dr,Atlanta,GA,30308,Fulton,404-815-9210,Monday :- 08:00 - 22:00 | Tuesday :- 08:00 - 22:00 | Wednesday :- 08:00 - 22:00 | Thursday :- 08:00 - 22:00 | Friday :- 08:00 - 22:00 | Saturday :- 08:00 - 22:00 | Sunday :- 08:00 - 22:00,https://locations.traderjoes.com/ga/atlanta/730,Trader Joes,1/21/2020,USA
655,Trader Joe'S Pikesville (655),39.38707,-76.73684,1809 Reisterstown Rd Pikesville MD 21208,1809 Reisterstown Rd,Pikesville,MD,21208,Baltimore,410-484-8373,Monday :- 08:00 - 21:00 | Tuesday :- 08:00 - 21:00 | Wednesday :- 08:00 - 21:00 | Thursday :- 08:00 - 21:00 | Friday :- 08:00 - 21:00 | Saturday :- 08:00 - 21:00 | Sunday :- 08:00 - 21:00,https://locations.traderjoes.com/md/pikesville/655,Trader Joes,1/21/2020,USA
525,Trader Joe'S Danbury (525),41.39218,-73.52027,113 Mill Plain Rd Danbury CT 06811,113 Mill Plain Rd,Danbury,CT,06811,Fairfield,203-739-0098,Monday :- 08:00 - 21:00 | Tuesday :- 08:00 - 21:00 | Wednesday :- 08:00 - 21:00 | Thursday :- 08:00 - 21:00 | Friday :- 08:00 - 21:00 | Saturday :- 08:00 - 21:00 | Sunday :- 08:00 - 21:00,https://locations.traderjoes.com/ct/danbury/525,Trader Joes,1/21/2020,USA
199,Trader Joe'S Chico (199),39.760785,-121.84663,801 East Ave Chico CA 95926,801 East Ave,Chico,CA,95926,Butte,530-343-9920,Monday :- 08:00 - 21:00 | Tuesday :- 08:00 - 21:00 | Wednesday :- 08:00 - 21:00 | Thursday :- 08:00 - 21:00 | Friday :- 08:00 - 21:00 | Saturday :- 08:00 - 21:00 | Sunday :- 08:00 - 21:00,https://locations.traderjoes.com/ca/chico/199,Trader Joes,1/21/2020,USA
98,Trader Joe'S Las Vegas - Centennial Hills (98),36.26378,-115.25675,5639 Centennial Ctr Blvd Las Vegas NV 89149,5639 Centennial Ctr Blvd,Las Vegas,NV,89149,Clark,702-396-3372,Monday :- 08:00 - 21:00 | Tuesday :- 08:00 - 21:00 | Wednesday :- 08:00 - 21:00 | Thursday :- 08:00 - 21:00 | Friday :- 08:00 - 21:00 | Saturday :- 08:00 - 21:00 | Sunday :- 08:00 - 21:00,https://locations.traderjoes.com/nv/las-vegas/98,Trader Joes,1/21/2020,USA
715,Trader Joe'S Woodbury (715),44.94378,-92.92441,8960 Hudson Rd. Ste. 801 Woodbury MN 55125,8960 Hudson Rd. Ste. 801,Woodbury,MN,55125,Washington,651-735-0269,Monday :- 08:00 - 21:00 | Tuesday :- 08:00 - 21:00 | Wednesday :- 08:00 - 21:00 | Thursday :- 08:00 - 21:00 | Friday :- 08:00 - 21:00 | Saturday :- 08:00 - 21:00 | Sunday :- 08:00 - 21:00,https://locations.traderjoes.com/mn/woodbury/715,Trader Joes,1/21/2020,USA
303,Trader Joe'S Greenwood Village (303),39.60948295,-104.9600111,"5910 S University Blvd, Suite E1 Greenwood Village CO 80121","5910 S University Blvd, Suite E1",Greenwood Village,CO,80121,Arapahoe,303-730-3848,Monday :- 08:00 - 21:00 | Tuesday :- 08:00 - 21:00 | Wednesday :- 08:00 - 21:00 | Thursday :- 08:00 - 21:00 | Friday :- 08:00 - 21:00 | Saturday :- 08:00 - 21:00 | Sunday :- 08:00 - 21:00,https://locations.traderjoes.com/co/greenwood-village/303,Trader Joes,1/21/2020,USA
97,Trader Joe'S Henderson (97),36.06998,-115.08232,2716 N Green Valley Pkwy Henderson NV 89014,2716 N Green Valley Pkwy,Henderson,NV,89014,Clark,702-433-6773,Monday :- 08:00 - 21:00 | Tuesday :- 08:00 - 21:00 | Wednesday :- 08:00 - 21:00 | Thursday :- 08:00 - 21:00 | Friday :- 08:00 - 21:00 | Saturday :- 08:00 - 21:00 | Sunday :- 08:00 - 21:00,https://locations.traderjoes.com/nv/henderson/97,Trader Joes,1/21/2020,USA
74,Trader Joe'S Daly City (74),37.69978577,-122.482601,417 Westlake Center Daly City CA 94015,417 Westlake Center,Daly City,CA,94015,San Mateo,650-755-3825,Monday :- 08:00 - 21:00 | Tuesday :- 08:00 - 21:00 | Wednesday :- 08:00 - 21:00 | Thursday :- 08:00 - 21:00 | Friday :- 08:00 - 21:00 | Saturday :- 08:00 - 21:00 | Sunday :- 08:00 - 21:00,https://locations.traderjoes.com/ca/daly-city/74,Trader Joes,1/21/2020,USA
537,Trader Joe'S Syracuse (537),43.0467091,-76.06968809,3422 Erie Blvd E Syracuse NY 13214,3422 Erie Blvd E,Syracuse,NY,13214,Onondaga,315-446-1629,Monday :- 09:00 - 21:00 | Tuesday :- 09:00 - 21:00 | Wednesday :- 09:00 - 21:00 | Thursday :- 09:00 - 21:00 | Friday :- 09:00 - 21:00 | Saturday :- 09:00 - 21:00 | Sunday :- 09:00 - 21:00,https://locations.traderjoes.com/ny/syracuse/537,Trader Joes,1/21/2020,USA
751,Trader Joe'S Greenville (751),34.8302,-82.30629,59 Woodruff Industrial Ln Greenville SC 29607,59 Woodruff Industrial Ln,Greenville,SC,29607,Greenville,864-286-0231,Monday :- 08:00 - 21:00 | Tuesday :- 08:00 - 21:00 | Wednesday :- 08:00 - 21:00 | Thursday :- 08:00 - 21:00 | Friday :- 08:00 - 21:00 | Saturday :- 08:00 - 21:00 | Sunday :- 08:00 - 21:00,https://locations.traderjoes.com/sc/greenville/751,Trader Joes,1/21/2020,USA
30,Trader Joe'S Simi Valley (30),34.27900458,-118.7400341,2975-A Cochran St Simi Valley CA 93065,2975-A Cochran St,Simi Valley,CA,93065,Ventura,805-520-3135,Monday :- 08:00 - 21:00 | Tuesday :- 08:00 - 21:00 | Wednesday :- 08:00 - 21:00 | Thursday :- 08:00 - 21:00 | Friday :- 08:00 - 21:00 | Saturday :- 08:00 - 21:00 | Sunday :- 08:00 - 21:00,https://locations.traderjoes.com/ca/simi-valley/30,Trader Joes,1/21/2020,USA
32,Trader Joe'S Pasadena (East) (32),34.12741,-118.08996,3035 E Huntington Dr Pasadena CA 91107,3035 E Huntington Dr,Pasadena,CA,91107,Los Angeles,626-356-2963,Monday :- 08:00 - 21:00 | Tuesday :- 08:00 - 21:00 | Wednesday :- 08:00 - 21:00 | Thursday :- 08:00 - 21:00 | Friday :- 08:00 - 21:00 | Saturday :- 08:00 - 21:00 | Sunday :- 08:00 - 21:00,https://locations.traderjoes.com/ca/pasadena/32,Trader Joes,1/21/2020,USA
750,Trader Joe'S Greensboro (750),36.1317601,-79.85607672,3721 Battleground Ave. Greensboro NC 27410,3721 Battleground Ave.,Greensboro,NC,27410,Guilford,336-286-7859,Monday :- 09:00 - 21:00 | Tuesday :- 09:00 - 21:00 | Wednesday :- 09:00 - 21:00 | Thursday :- 09:00 - 21:00 | Friday :- 09:00 - 21:00 | Saturday :- 09:00 - 21:00 | Sunday :- 09:00 - 21:00,https://locations.traderjoes.com/nc/greensboro/750,Trader Joes,1/21/2020,USA
738,Trader Joe'S Germantown (738),35.0916667,-89.80237799,2130 Exeter Rd. Germantown TN 38138,2130 Exeter Rd.,Germantown,TN,38138,Shelby,901-759-2803,Monday :- 09:00 - 21:00 | Tuesday :- 09:00 - 21:00 | Wednesday :- 09:00 - 21:00 | Thursday :- 09:00 - 21:00 | Friday :- 09:00 - 21:00 | Saturday :- 09:00 - 21:00 | Sunday :- 09:00 - 21:00,https://locations.traderjoes.com/tn/germantown/738,Trader Joes,1/21/2020,USA
159,Trader Joe'S Spokane (159),47.62821,-117.3669476,2975 East 29Th Ave Spokane WA 99223,2975 East 29Th Ave,Spokane,WA,99223,Spokane,509-534-1077,Monday :- 08:00 - 21:00 | Tuesday :- 08:00 - 21:00 | Wednesday :- 08:00 - 21:00 | Thursday :- 08:00 - 21:00 | Friday :- 08:00 - 21:00 | Saturday :- 08:00 - 21:00 | Sunday :- 08:00 - 21:00,https://locations.traderjoes.com/wa/spokane/159,Trader Joes,1/21/2020,USA
695,Trader Joe'S Des Peres (695),38.60106,-90.46786,13343 Manchester Rd Des Peres MO 63131,13343 Manchester Rd,Des Peres,MO,63131,St. Louis,314-984-5051,Monday :- 08:00 - 21:00 | Tuesday :- 08:00 - 21:00 | Wednesday :- 08:00 - 21:00 | Thursday :- 08:00 - 21:00 | Friday :- 08:00 - 21:00 | Saturday :- 08:00 - 21:00 | Sunday :- 08:00 - 21:00,https://locations.traderjoes.com/mo/des-peres/695,Trader Joes,1/21/2020,USA
601,Trader Joe'S Westfield (601),40.65256592,-74.34971714,155 Elm St Westfield NJ 07090,155 Elm St,Westfield,NJ,07090,Union,908-301-0910,Monday :- 08:00 - 22:00 | Tuesday :- 08:00 - 22:00 | Wednesday :- 08:00 - 22:00 | Thursday :- 08:00 - 22:00 | Friday :- 08:00 - 22:00 | Saturday :- 08:00 - 22:00 | Sunday :- 08:00 - 22:00,https://locations.traderjoes.com/nj/westfield/601,Trader Joes,1/21/2020,USA
633,Trader Joe'S Jenkintown (633),40.10828517,-75.12323168,933 Old York Rd Jenkintown PA 19046,933 Old York Rd,Jenkintown,PA,19046,Montgomery,215-885-5240,Monday :- 08:00 - 21:00 | Tuesday :- 08:00 - 21:00 | Wednesday :- 08:00 - 21:00 | Thursday :- 08:00 - 21:00 | Friday :- 08:00 - 21:00 | Saturday :- 08:00 - 21:00 | Sunday :- 08:00 - 21:00,https://locations.traderjoes.com/pa/jenkintown/633,Trader Joes,1/21/2020,USA
683,Trader Joe'S Downers Grove (683),41.80973737,-87.98810263,122 Ogden Ave Downers Grove IL 60515,122 Ogden Ave,Downers Grove,IL,60515,DuPage,630-241-1662,Monday :- 08:00 - 21:00 | Tuesday :- 08:00 - 21:00 | Wednesday :- 08:00 - 21:00 | Thursday :- 08:00 - 21:00 | Friday :- 08:00 - 21:00 | Saturday :- 08:00 - 21:00 | Sunday :- 08:00 - 21:00,https://locations.traderjoes.com/il/downers-grove/683,Trader Joes,1/21/2020,USA
39,Trader Joe'S Laguna Hills (39),33.61127184,-117.7043135,24231 Avenida De La Carlota Laguna Hills CA 92653,24231 Avenida De La Carlota,Laguna Hills,CA,92653,Orange,949-461-0927,Monday :- 08:00 - 21:00 | Tuesday :- 08:00 - 21:00 | Wednesday :- 08:00 - 21:00 | Thursday :- 08:00 - 21:00 | Friday :- 08:00 - 21:00 | Saturday :- 08:00 - 21:00 | Sunday :- 08:00 - 21:00,https://locations.traderjoes.com/ca/laguna-hills/39,Trader Joes,1/21/2020,USA
641,Trader Joe'S Falls Church - Tyson'S Station (641),38.90417562,-77.20433735,7514 Leesburg Turnpike Falls Church VA 22043,7514 Leesburg Turnpike,Falls Church,VA,22043,Fairfax,703-288-0566,Monday :- 08:00 - 22:00 | Tuesday :- 08:00 - 22:00 | Wednesday :- 08:00 - 22:00 | Thursday :- 08:00 - 22:00 | Friday :- 08:00 - 22:00 | Saturday :- 08:00 - 22:00 | Sunday :- 08:00 - 22:00,https://locations.traderjoes.com/va/falls-church/641,Trader Joes,1/21/2020,USA
154,Trader Joe'S Corvallis (154),44.58233041,-123.2584814,1550 Nw 9Th St Corvallis OR 97330,1550 Nw 9Th St,Corvallis,OR,97330,Benton,541-753-0048,Monday :- 08:00 - 21:00 | Tuesday :- 08:00 - 21:00 | Wednesday :- 08:00 - 21:00 | Thursday :- 08:00 - 21:00 | Friday :- 08:00 - 21:00 | Saturday :- 08:00 - 21:00 | Sunday :- 08:00 - 21:00,https://locations.traderjoes.com/or/corvallis/154,Trader Joes,1/21/2020,USA
775,Trader Joe'S Pembroke Pines (775),26.00765,-80.30780487,11960 Pines Blvd Pembroke Pines FL 33026,11960 Pines Blvd,Pembroke Pines,FL,33026,Broward,954-432-0405,Monday :- 08:00 - 21:00 | Tuesday :- 08:00 - 21:00 | Wednesday :- 08:00 - 21:00 | Thursday :- 08:00 - 21:00 | Friday :- 08:00 - 21:00 | Saturday :- 08:00 - 21:00 | Sunday :- 08:00 - 21:00,https://locations.traderjoes.com/fl/pembroke-pines/775,Trader Joes,1/21/2020,USA
673,Trader Joe'S Kettering (673),39.68945222,-84.16545667,328 East Stroop Rd Kettering OH 45429,328 East Stroop Rd,Kettering,OH,45429,Montgomery,937-294-5411,Monday :- 08:00 - 21:00 | Tuesday :- 08:00 - 21:00 | Wednesday :- 08:00 - 21:00 | Thursday :- 08:00 - 21:00 | Friday :- 08:00 - 21:00 | Saturday :- 08:00 - 21:00 | Sunday :- 08:00 - 21:00,https://locations.traderjoes.com/oh/kettering/673,Trader Joes,1/21/2020,USA
606,Trader Joe'S Edgewater (606),40.81989319,-73.97785346,715 River Rd Edgewater NJ 07020,715 River Rd,Edgewater,NJ,07020,Bergen,201-945-5932,Monday :- 08:00 - 22:00 | Tuesday :- 08:00 - 22:00 | Wednesday :- 08:00 - 22:00 | Thursday :- 08:00 - 22:00 | Friday :- 08:00 - 22:00 | Saturday :- 08:00 - 22:00 | Sunday :- 08:00 - 22:00,https://locations.traderjoes.com/nj/edgewater/606,Trader Joes,1/21/2020,USA
280,Trader Joe'S Anthem (280),36.00206064,-115.108423,10345 S Eastern Ave Henderson NV 89052,10345 S Eastern Ave,Henderson,NV,89052,Clark,702-407-8673,Monday :- 08:00 - 21:00 | Tuesday :- 08:00 - 21:00 | Wednesday :- 08:00 - 21:00 | Thursday :- 08:00 - 21:00 | Friday :- 08:00 - 21:00 | Saturday :- 08:00 - 21:00 | Sunday :- 08:00 - 21:00,https://locations.traderjoes.com/nv/henderson/280,Trader Joes,1/21/2020,USA
723,Trader Joe'S Leawood (723),38.91284,-94.63519,4201 W 119Th St Leawood KS 66209,4201 W 119Th St,Leawood,KS,66209,Johnson,913-327-7209,Monday :- 08:00 - 21:00 | Tuesday :- 08:00 - 21:00 | Wednesday :- 08:00 - 21:00 | Thursday :- 08:00 - 21:00 | Friday :- 08:00 - 21:00 | Saturday :- 08:00 - 21:00 | Sunday :- 08:00 - 21:00,https://locations.traderjoes.com/ks/leawood/723,Trader Joes,1/21/2020,USA
33,Trader Joe'S Westchester (33),33.9587348,-118.3966373,8645 S Sepulveda Westchester CA 90045,8645 S Sepulveda,Westchester,CA,90045,Los Angeles,310-338-9238,Monday :- 08:00 - 21:00 | Tuesday :- 08:00 - 21:00 | Wednesday :- 08:00 - 21:00 | Thursday :- 08:00 - 21:00 | Friday :- 08:00 - 21:00 | Saturday :- 08:00 - 21:00 | Sunday :- 08:00 - 21:00,https://locations.traderjoes.com/ca/westchester/33,Trader Joes,1/21/2020,USA
61,Trader Joe'S San Rafael (61),37.97047674,-122.5167061,337 3Rd St San Rafael CA 94901,337 3Rd St,San Rafael,CA,94901,Marin,415-454-9530,Monday :- 08:00 - 21:00 | Tuesday :- 08:00 - 21:00 | Wednesday :- 08:00 - 21:00 | Thursday :- 08:00 - 21:00 | Friday :- 08:00 - 21:00 | Saturday :- 08:00 - 21:00 | Sunday :- 08:00 - 21:00,https://locations.traderjoes.com/ca/san-rafael/61,Trader Joes,1/21/2020,USA
121,Trader Joe'S Torrance - Hawthorne Blvd (121),33.8527246,-118.3536415,19720 Hawthorne Blvd Torrance CA 90503,19720 Hawthorne Blvd,Torrance,CA,90503,Los Angeles,310-793-8585,Monday :- 08:00 - 21:00 | Tuesday :- 08:00 - 21:00 | Wednesday :- 08:00 - 21:00 | Thursday :- 08:00 - 21:00 | Friday :- 08:00 - 21:00 | Saturday :- 08:00 - 21:00 | Sunday :- 08:00 - 21:00,https://locations.traderjoes.com/ca/torrance/121,Trader Joes,1/21/2020,USA
55,Trader Joe'S Eagle Rock (55),34.13952,-118.20014,1566 Colorado Blvd Eagle Rock CA 90041,1566 Colorado Blvd,Eagle Rock,CA,90041,Los Angeles,323-257-6422,Monday :- 08:00 - 21:00 | Tuesday :- 08:00 - 21:00 | Wednesday :- 08:00 - 21:00 | Thursday :- 08:00 - 21:00 | Friday :- 08:00 - 21:00 | Saturday :- 08:00 - 21:00 | Sunday :- 08:00 - 21:00,https://locations.traderjoes.com/ca/eagle-rock/55,Trader Joes,1/21/2020,USA
639,Trader Joe'S North Wales (639),40.20652,-75.22461,1460 Bethlehem Pike North Wales PA 19454,1460 Bethlehem Pike,North Wales,PA,19454,Montgomery,215-646-5870,Monday :- 08:00 - 21:00 | Tuesday :- 08:00 - 21:00 | Wednesday :- 08:00 - 21:00 | Thursday :- 08:00 - 21:00 | Friday :- 08:00 - 21:00 | Saturday :- 08:00 - 21:00 | Sunday :- 08:00 - 21:00,https://locations.traderjoes.com/pa/north-wales/639,Trader Joes,1/21/2020,USA
733,Trader Joe'S Roswell (733),34.05753571,-84.37974847,635 W Crossville Rd Roswell GA 30075,635 W Crossville Rd,Roswell,GA,30075,Fulton,770-645-8505,Monday :- 08:00 - 21:00 | Tuesday :- 08:00 - 21:00 | Wednesday :- 08:00 - 21:00 | Thursday :- 08:00 - 21:00 | Friday :- 08:00 - 21:00 | Saturday :- 08:00 - 21:00 | Sunday :- 08:00 - 21:00,https://locations.traderjoes.com/ga/roswell/733,Trader Joes,1/21/2020,USA
662,Trader Joe'S Washington - 14Th St (662),38.91613,-77.03194,1914 14Th St Nw Washington DC 20009,1914 14Th St Nw,Washington,DC,20009,District of Columbia,202-986-1591,Monday :- 08:00 - 22:00 | Tuesday :- 08:00 - 22:00 | Wednesday :- 08:00 - 22:00 | Thursday :- 08:00 - 22:00 | Friday :- 08:00 - 22:00 | Saturday :- 08:00 - 22:00 | Sunday :- 08:00 - 22:00,https://locations.traderjoes.com/dc/washington/662,Trader Joes,1/21/2020,USA
551,Trader Joe'S Commack (551),40.84111,-73.30899,5900 Jericho Turnpike Commack NY 11725,5900 Jericho Turnpike,Commack,NY,11725,Suffolk,631-499-0898,Monday :- 08:00 - 21:00 | Tuesday :- 08:00 - 21:00 | Wednesday :- 08:00 - 21:00 | Thursday :- 08:00 - 21:00 | Friday :- 08:00 - 21:00 | Saturday :- 08:00 - 21:00 | Sunday :- 08:00 - 21:00,https://locations.traderjoes.com/ny/commack/551,Trader Joes,1/21/2020,USA
661,Trader Joe'S Charlottesville (661),38.0629981,-78.4915289,2025 Bond St. Charlottesville VA 22901,2025 Bond St.,Charlottesville,VA,22901,Albemarle,434-974-1466,Monday :- 08:00 - 21:00 | Tuesday :- 08:00 - 21:00 | Wednesday :- 08:00 - 21:00 | Thursday :- 08:00 - 21:00 | Friday :- 08:00 - 21:00 | Saturday :- 08:00 - 21:00 | Sunday :- 08:00 - 21:00,https://locations.traderjoes.com/va/charlottesville/661,Trader Joes,1/21/2020,USA
188,Trader Joe'S San Diego - Point Loma (188),32.73599,-117.21771,2401 Truxtun Rd San Diego CA 92106,2401 Truxtun Rd,San Diego,CA,92106,San Diego,619-758-9272,Monday :- 08:00 - 21:00 | Tuesday :- 08:00 - 21:00 | Wednesday :- 08:00 - 21:00 | Thursday :- 08:00 - 21:00 | Friday :- 08:00 - 21:00 | Saturday :- 08:00 - 21:00 | Sunday :- 08:00 - 21:00,https://locations.traderjoes.com/ca/san-diego/188,Trader Joes,1/21/2020,USA
760,Trader Joe'S Jacksonville Beach (760),30.25712571,-81.38812229,4180 S 3Rd St Jacksonville Beach FL 32250,4180 S 3Rd St,Jacksonville Beach,FL,32250,Duval,904-241-1770,Monday :- 08:00 - 21:00 | Tuesday :- 08:00 - 21:00 | Wednesday :- 08:00 - 21:00 | Thursday :- 08:00 - 21:00 | Friday :- 08:00 - 21:00 | Saturday :- 08:00 - 21:00 | Sunday :- 08:00 - 21:00,https://locations.traderjoes.com/fl/jacksonville-beach/760,Trader Joes,1/21/2020,USA
649,Trader Joe'S Towson (649),39.41049,-76.61864,800 Kenilworth Drive Towson MD 21204,800 Kenilworth Drive,Towson,MD,21204,Baltimore,410-321-0276,Monday :- 08:00 - 21:00 | Tuesday :- 08:00 - 21:00 | Wednesday :- 08:00 - 21:00 | Thursday :- 08:00 - 21:00 | Friday :- 08:00 - 21:00 | Saturday :- 08:00 - 21:00 | Sunday :- 08:00 - 21:00,https://locations.traderjoes.com/md/towson/649,Trader Joes,1/21/2020,USA
772,Trader Joe'S Palm Beach Gardens (772),26.84462286,-80.07432095,2560 Pga Blvd Palm Beach Gardens FL 33410,2560 Pga Blvd,Palm Beach Gardens,FL,33410,Palm Beach,561-514-6455,Monday :- 08:00 - 21:00 | Tuesday :- 08:00 - 21:00 | Wednesday :- 08:00 - 21:00 | Thursday :- 08:00 - 21:00 | Friday :- 08:00 - 21:00 | Saturday :- 08:00 - 21:00 | Sunday :- 08:00 - 21:00,https://locations.traderjoes.com/fl/palm-beach-gardens/772,Trader Joes,1/21/2020,USA
133,Trader Joe'S Burien (133),47.46047,-122.33391,15868 1St Ave S Burien WA 98148,15868 1St Ave S,Burien,WA,98148,King,206-901-9339,Monday :- 08:00 - 21:00 | Tuesday :- 08:00 - 21:00 | Wednesday :- 08:00 - 21:00 | Thursday :- 08:00 - 21:00 | Friday :- 08:00 - 21:00 | Saturday :- 08:00 - 21:00 | Sunday :- 08:00 - 21:00,https://locations.traderjoes.com/wa/burien/133,Trader Joes,1/21/2020,USA
668,Trader Joe'S Rochester Hills (668),42.68065154,-83.19460846,3044 Walton Blvd Rochester Hills MI 48309,3044 Walton Blvd,Rochester Hills,MI,48309,Oakland,248-375-2190,Monday :- 08:00 - 21:00 | Tuesday :- 08:00 - 21:00 | Wednesday :- 08:00 - 21:00 | Thursday :- 08:00 - 21:00 | Friday :- 08:00 - 21:00 | Saturday :- 08:00 - 21:00 | Sunday :- 08:00 - 21:00,https://locations.traderjoes.com/mi/rochester-hills/668,Trader Joes,1/21/2020,USA
144,Trader Joe'S Portland - Hollywood (144),45.5338,-122.621088,4121 Ne Halsey St Portland OR 97232,4121 Ne Halsey St,Portland,OR,97232,Multnomah,503-284-4232,Monday :- 08:00 - 21:00 | Tuesday :- 08:00 - 21:00 | Wednesday :- 08:00 - 21:00 | Thursday :- 08:00 - 21:00 | Friday :- 08:00 - 21:00 | Saturday :- 08:00 - 21:00 | Sunday :- 08:00 - 21:00,https://locations.traderjoes.com/or/portland/144,Trader Joes,1/21/2020,USA
304,Trader Joe'S Fort Collins (304),40.53953188,-105.077,"3500 S College Ave, Ste 110 Fort Collins CO 80525","3500 S College Ave, Ste 110",Fort Collins,CO,80525,Larimer,970-223-3560,Monday :- 08:00 - 21:00 | Tuesday :- 08:00 - 21:00 | Wednesday :- 08:00 - 21:00 | Thursday :- 08:00 - 21:00 | Friday :- 08:00 - 21:00 | Saturday :- 08:00 - 21:00 | Sunday :- 08:00 - 21:00,https://locations.traderjoes.com/co/fort-collins/304,Trader Joes,1/21/2020,USA
128,Trader Joe'S Napa (128),38.32212745,-122.3060749,3654 Bel Aire Plaza Napa CA 94558,3654 Bel Aire Plaza,Napa,CA,94558,Napa,707-256-0806,Monday :- 08:00 - 21:00 | Tuesday :- 08:00 - 21:00 | Wednesday :- 08:00 - 21:00 | Thursday :- 08:00 - 21:00 | Friday :- 08:00 - 21:00 | Saturday :- 08:00 - 21:00 | Sunday :- 08:00 - 21:00,https://locations.traderjoes.com/ca/napa/128,Trader Joes,1/21/2020,USA
201,Trader Joe'S Brentwood (201),37.96160728,-121.7482694,5451 Lone Tree Way Brentwood CA 94513,5451 Lone Tree Way,Brentwood,CA,94513,Contra Costa,925-516-3044,Monday :- 08:00 - 21:00 | Tuesday :- 08:00 - 21:00 | Wednesday :- 08:00 - 21:00 | Thursday :- 08:00 - 21:00 | Friday :- 08:00 - 21:00 | Saturday :- 08:00 - 21:00 | Sunday :- 08:00 - 21:00,https://locations.traderjoes.com/ca/brentwood/201,Trader Joes,1/21/2020,USA
531,Trader Joe'S Scarsdale (531),40.97204,-73.80486,727 White Plains Rd Scarsdale NY 10583,727 White Plains Rd,Scarsdale,NY,10583,Westchester,914-472-2988,Monday :- 08:00 - 21:00 | Tuesday :- 08:00 - 21:00 | Wednesday :- 08:00 - 21:00 | Thursday :- 08:00 - 21:00 | Friday :- 08:00 - 21:00 | Saturday :- 08:00 - 21:00 | Sunday :- 08:00 - 21:00,https://locations.traderjoes.com/ny/scarsdale/531,Trader Joes,1/21/2020,USA
79,Trader Joe'S Pacific Grove (79),36.6059765,-121.9215595,1170 Forest Ave Pacific Grove CA 93950,1170 Forest Ave,Pacific Grove,CA,93950,Monterey,831-656-0180,Monday :- 08:00 - 21:00 | Tuesday :- 08:00 - 21:00 | Wednesday :- 08:00 - 21:00 | Thursday :- 08:00 - 21:00 | Friday :- 08:00 - 21:00 | Saturday :- 08:00 - 21:00 | Sunday :- 08:00 - 21:00,https://locations.traderjoes.com/ca/pacific-grove/79,Trader Joes,1/21/2020,USA
745,Trader Joe'S Chapel Hill (745),35.93661118,-79.02658844,1800 E Franklin St Chapel Hill NC 27514,1800 E Franklin St,Chapel Hill,NC,27514,Orange,919-918-7871,Monday :- 08:00 - 21:00 | Tuesday :- 08:00 - 21:00 | Wednesday :- 08:00 - 21:00 | Thursday :- 08:00 - 21:00 | Friday :- 08:00 - 21:00 | Saturday :- 08:00 - 21:00 | Sunday :- 08:00 - 21:00,https://locations.traderjoes.com/nc/chapel-hill/745,Trader Joes,1/21/2020,USA
451,Trader Joe'S San Antonio (451),29.49685,-98.47839,350 East Basse Road San Antonio TX 78209,350 East Basse Road,San Antonio,TX,78209,Bexar,210-826-1110,Monday :- 08:00 - 21:00 | Tuesday :- 08:00 - 21:00 | Wednesday :- 08:00 - 21:00 | Thursday :- 08:00 - 21:00 | Friday :- 08:00 - 21:00 | Saturday :- 08:00 - 21:00 | Sunday :- 08:00 - 21:00,https://locations.traderjoes.com/tx/san-antonio/451,Trader Joes,1/21/2020,USA
526,Trader Joe'S West Hartford (526),41.72339622,-72.76030264,1489 New Britain Ave West Hartford CT 06110,1489 New Britain Ave,West Hartford,CT,06110,Hartford,860-561-4771,Monday :- 08:00 - 21:00 | Tuesday :- 08:00 - 21:00 | Wednesday :- 08:00 - 21:00 | Thursday :- 08:00 - 21:00 | Friday :- 08:00 - 21:00 | Saturday :- 08:00 - 21:00 | Sunday :- 08:00 - 21:00,https://locations.traderjoes.com/ct/west-hartford/526,Trader Joes,1/21/2020,USA
8,Trader Joe'S Fresno (8),36.85693215,-119.7856441,8478 N. Friant Road Fresno CA 93720,8478 N. Friant Road,Fresno,CA,93720,Fresno,559-433-6478,Monday :- 08:00 - 21:00 | Tuesday :- 08:00 - 21:00 | Wednesday :- 08:00 - 21:00 | Thursday :- 08:00 - 21:00 | Friday :- 08:00 - 21:00 | Saturday :- 08:00 - 21:00 | Sunday :- 08:00 - 21:00,https://locations.traderjoes.com/ca/fresno/8,Trader Joes,1/21/2020,USA
360,Trader Joe'S Boise (360),43.61349,-116.20376,300 S Capitol Blvd Boise ID 83702,300 S Capitol Blvd,Boise,ID,83702,Ada,208-336-7282,Monday :- 08:00 - 21:00 | Tuesday :- 08:00 - 21:00 | Wednesday :- 08:00 - 21:00 | Thursday :- 08:00 - 21:00 | Friday :- 08:00 - 21:00 | Saturday :- 08:00 - 21:00 | Sunday :- 08:00 - 21:00,https://locations.traderjoes.com/id/boise/360,Trader Joes,1/21/2020,USA
3,Trader Joe'S Palm Desert (3),33.72718241,-116.39837,44250 Town Center Way Palm Desert CA 92260,44250 Town Center Way,Palm Desert,CA,92260,Riverside,760-340-2291,Monday :- 08:00 - 21:00 | Tuesday :- 08:00 - 21:00 | Wednesday :- 08:00 - 21:00 | Thursday :- 08:00 - 21:00 | Friday :- 08:00 - 21:00 | Saturday :- 08:00 - 21:00 | Sunday :- 08:00 - 21:00,https://locations.traderjoes.com/ca/palm-desert/3,Trader Joes,1/21/2020,USA
34,Trader Joe'S Manhattan Beach Blvd (34),33.88742,-118.3801287,1821 Manhattan Beach Blvd Manhattan Bch CA 90266,1821 Manhattan Beach Blvd,Manhattan Bch,CA,90266,Los Angeles,310-372-1274,Monday :- 08:00 - 21:00 | Tuesday :- 08:00 - 21:00 | Wednesday :- 08:00 - 21:00 | Thursday :- 08:00 - 21:00 | Friday :- 08:00 - 21:00 | Saturday :- 08:00 - 21:00 | Sunday :- 08:00 - 21:00,https://locations.traderjoes.com/ca/manhattan-bch./34,Trader Joes,1/21/2020,USA
138,Trader Joe'S Issaquah (138),47.54496467,-122.0520002,975 Nw Gilman Blvd Issaquah WA 98027,975 Nw Gilman Blvd,Issaquah,WA,98027,King,425-557-6420,Monday :- 08:00 - 21:00 | Tuesday :- 08:00 - 21:00 | Wednesday :- 08:00 - 21:00 | Thursday :- 08:00 - 21:00 | Friday :- 08:00 - 21:00 | Saturday :- 08:00 - 21:00 | Sunday :- 08:00 - 21:00,https://locations.traderjoes.com/wa/issaquah/138,Trader Joes,1/21/2020,USA
620,Trader Joe'S Glover Park (620),38.91782,-77.06947,2101 Wisconsin Ave Nw Suite A Washington DC 20007,2101 Wisconsin Ave Nw Suite A,Washington,DC,20007,District of Columbia,202-944-8403,Monday :- 09:00 - 21:00 | Tuesday :- 09:00 - 21:00 | Wednesday :- 09:00 - 21:00 | Thursday :- 09:00 - 21:00 | Friday :- 09:00 - 21:00 | Saturday :- 09:00 - 21:00 | Sunday :- 09:00 - 21:00,https://locations.traderjoes.com/dc/washington/620,Trader Joes,1/21/2020,USA
737,Trader Joe'S Birmingham (737),33.44715004,-86.73131031,"205 Summit Blvd, Suite 100 Birmingham AL 35243","205 Summit Blvd, Suite 100",Birmingham,AL,35243,Jefferson,205-969-7801,Monday :- 09:00 - 21:00 | Tuesday :- 09:00 - 21:00 | Wednesday :- 09:00 - 21:00 | Thursday :- 09:00 - 21:00 | Friday :- 09:00 - 21:00 | Saturday :- 09:00 - 21:00 | Sunday :- 09:00 - 21:00,https://locations.traderjoes.com/al/birmingham/737,Trader Joes,1/21/2020,USA
631,Trader Joe'S Marlton (631),39.8993389,-74.93207704,300 P Route 73 S Marlton NJ 08053,300 P Route 73 S,Marlton,NJ,08053,Burlington,856-988-3323,Monday :- 08:00 - 21:00 | Tuesday :- 08:00 - 21:00 | Wednesday :- 08:00 - 21:00 | Thursday :- 08:00 - 21:00 | Friday :- 08:00 - 21:00 | Saturday :- 08:00 - 21:00 | Sunday :- 08:00 - 21:00,https://locations.traderjoes.com/nj/marlton/631,Trader Joes,1/21/2020,USA
518,Trader Joe'S Warwick (518),41.71155018,-71.48941045,1000 Bald Hill Rd Warwick RI 02886,1000 Bald Hill Rd,Warwick,RI,02886,Kent,401-821-5368,Monday :- 08:00 - 21:00 | Tuesday :- 08:00 - 21:00 | Wednesday :- 08:00 - 21:00 | Thursday :- 08:00 - 21:00 | Friday :- 08:00 - 21:00 | Saturday :- 08:00 - 21:00 | Sunday :- 08:00 - 21:00,https://locations.traderjoes.com/ri/warwick/518,Trader Joes,1/21/2020,USA
88,Trader Joe'S Tucson - Crossroads (88),32.2505813,-110.8910269,4766 E Grant Rd Tucson AZ 85712,4766 E Grant Rd,Tucson,AZ,85712,Pima,520-323-4500,Monday :- 08:00 - 21:00 | Tuesday :- 08:00 - 21:00 | Wednesday :- 08:00 - 21:00 | Thursday :- 08:00 - 21:00 | Friday :- 08:00 - 21:00 | Saturday :- 08:00 - 21:00 | Sunday :- 08:00 - 21:00,https://locations.traderjoes.com/az/tucson/88,Trader Joes,1/21/2020,USA
771,Trader Joe'S Delray Beach (771),26.43861079,-80.07164256,1851 S Federal Highway #500 Delray Beach FL 33483,1851 S Federal Highway #500,Delray Beach,FL,33483,Palm Beach,561-278-1493,Monday :- 08:00 - 21:00 | Tuesday :- 08:00 - 21:00 | Wednesday :- 08:00 - 21:00 | Thursday :- 08:00 - 21:00 | Friday :- 08:00 - 21:00 | Saturday :- 08:00 - 21:00 | Sunday :- 08:00 - 21:00,https://locations.traderjoes.com/fl/delray-beach/771,Trader Joes,1/21/2020,USA
233,Trader Joe'S Rancho Palos Verdes (233),33.74957715,-118.4065784,31176 Hawthorne Blvd Rancho Palos Verdes CA 90275,31176 Hawthorne Blvd,Rancho Palos Verdes,CA,90275,Los Angeles,310-544-1727,Monday :- 08:00 - 21:00 | Tuesday :- 08:00 - 21:00 | Wednesday :- 08:00 - 21:00 | Thursday :- 08:00 - 21:00 | Friday :- 08:00 - 21:00 | Saturday :- 08:00 - 21:00 | Sunday :- 08:00 - 21:00,https://locations.traderjoes.com/ca/rancho-palos-verdes/233,Trader Joes,1/21/2020,USA
284,Trader Joe'S Las Vegas - Summerlin West (284),36.14631,-115.3355331,2315 Summa Dr Ste 100 Las Vegas NV 89135,2315 Summa Dr Ste 100,Las Vegas,NV,89135,Clark,702-242-0597,Monday :- 08:00 - 21:00 | Tuesday :- 08:00 - 21:00 | Wednesday :- 08:00 - 21:00 | Thursday :- 08:00 - 21:00 | Friday :- 08:00 - 21:00 | Saturday :- 08:00 - 21:00 | Sunday :- 08:00 - 21:00,https://locations.traderjoes.com/nv/las-vegas/284,Trader Joes,1/21/2020,USA
47,Trader Joe'S Huntington Beach (47),33.69151889,-117.9921898,18681 Main St Huntington Beach CA 92648,18681 Main St,Huntington Beach,CA,92648,Orange,714-848-9640,Monday :- 08:00 - 21:00 | Tuesday :- 08:00 - 21:00 | Wednesday :- 08:00 - 21:00 | Thursday :- 08:00 - 21:00 | Friday :- 08:00 - 21:00 | Saturday :- 08:00 - 21:00 | Sunday :- 08:00 - 21:00,https://locations.traderjoes.com/ca/huntington-beach/47,Trader Joes,1/21/2020,USA
136,Trader Joe'S Vancouver (136),45.61932573,-122.5548802,305 Se Chkalov Dr Vancouver WA 98683,305 Se Chkalov Dr,Vancouver,WA,98683,Clark,360-883-9000,Monday :- 08:00 - 21:00 | Tuesday :- 08:00 - 21:00 | Wednesday :- 08:00 - 21:00 | Thursday :- 08:00 - 21:00 | Friday :- 08:00 - 21:00 | Saturday :- 08:00 - 21:00 | Sunday :- 08:00 - 21:00,https://locations.traderjoes.com/wa/vancouver/136,Trader Joes,1/21/2020,USA
181,Trader Joe'S Los Gatos (181),37.2441348,-121.9589201,15466 Los Gatos Blvd Los Gatos CA 95032,15466 Los Gatos Blvd,Los Gatos,CA,95032,Santa Clara,408-356-2324,Monday :- 09:00 - 21:00 | Tuesday :- 09:00 - 21:00 | Wednesday :- 09:00 - 21:00 | Thursday :- 09:00 - 21:00 | Friday :- 09:00 - 21:00 | Saturday :- 09:00 - 21:00 | Sunday :- 09:00 - 21:00,https://locations.traderjoes.com/ca/los-gatos/181,Trader Joes,1/21/2020,USA
603,Trader Joe'S Wayne (603),40.9606,-74.24211929,1172 Hamburg Turnpike Wayne NJ 07470,1172 Hamburg Turnpike,Wayne,NJ,07470,Passaic,973-692-0050,Monday :- 08:00 - 21:00 | Tuesday :- 08:00 - 21:00 | Wednesday :- 08:00 - 21:00 | Thursday :- 08:00 - 21:00 | Friday :- 08:00 - 21:00 | Saturday :- 08:00 - 21:00 | Sunday :- 08:00 - 21:00,https://locations.traderjoes.com/nj/wayne/603,Trader Joes,1/21/2020,USA
89,Trader Joe'S Mesa (89),33.37909,-111.7874892,2050 E Baseline Rd Mesa AZ 85204,2050 E Baseline Rd,Mesa,AZ,85204,Maricopa,480-632-0951,Monday :- 08:00 - 21:00 | Tuesday :- 08:00 - 21:00 | Wednesday :- 08:00 - 21:00 | Thursday :- 08:00 - 21:00 | Friday :- 08:00 - 21:00 | Saturday :- 08:00 - 21:00 | Sunday :- 08:00 - 21:00,https://locations.traderjoes.com/az/mesa/89,Trader Joes,1/21/2020,USA
72,Trader Joe'S Emeryville (72),37.83746,-122.29435,5700 Christie Ave Emeryville CA 94608,5700 Christie Ave,Emeryville,CA,94608,Alameda,510-658-8091,Monday :- 08:00 - 21:00 | Tuesday :- 08:00 - 21:00 | Wednesday :- 08:00 - 21:00 | Thursday :- 08:00 - 21:00 | Friday :- 08:00 - 21:00 | Saturday :- 08:00 - 21:00 | Sunday :- 08:00 - 21:00,https://locations.traderjoes.com/ca/emeryville/72,Trader Joes,1/21/2020,USA
180,Trader Joe'S Clovis (180),36.84938921,-119.72965,1077 N Willow Ave Clovis CA 93611,1077 N Willow Ave,Clovis,CA,93611,Fresno,559-325-3120,Monday :- 08:00 - 21:00 | Tuesday :- 08:00 - 21:00 | Wednesday :- 08:00 - 21:00 | Thursday :- 08:00 - 21:00 | Friday :- 08:00 - 21:00 | Saturday :- 08:00 - 21:00 | Sunday :- 08:00 - 21:00,https://locations.traderjoes.com/ca/clovis/180,Trader Joes,1/21/2020,USA
44,Trader Joe'S Granada Hills (44),34.27230421,-118.5021963,11114 Balboa Blvd Granada Hills CA 91344,11114 Balboa Blvd,Granada Hills,CA,91344,Los Angeles,818-368-6461,Monday :- 08:00 - 21:00 | Tuesday :- 08:00 - 21:00 | Wednesday :- 08:00 - 21:00 | Thursday :- 08:00 - 21:00 | Friday :- 08:00 - 21:00 | Saturday :- 08:00 - 21:00 | Sunday :- 08:00 - 21:00,https://locations.traderjoes.com/ca/granada-hills/44,Trader Joes,1/21/2020,USA
15,Trader Joe'S Riverside (15),33.95571,-117.38794,6225 Riverside Plaza Riverside CA 92506,6225 Riverside Plaza,Riverside,CA,92506,Riverside,951-781-2378,Monday :- 08:00 - 21:00 | Tuesday :- 08:00 - 21:00 | Wednesday :- 08:00 - 21:00 | Thursday :- 08:00 - 21:00 | Friday :- 08:00 - 21:00 | Saturday :- 08:00 - 21:00 | Sunday :- 08:00 - 21:00,https://locations.traderjoes.com/ca/riverside/15,Trader Joes,1/21/2020,USA
667,Trader Joe'S Northville (667),42.4227691,-83.4337553,18771 Traditions Drive Northville MI 48167,18771 Traditions Drive,Northville,MI,48167,Oakland,248-349-4909,Monday :- 08:00 - 21:00 | Tuesday :- 08:00 - 21:00 | Wednesday :- 08:00 - 21:00 | Thursday :- 08:00 - 21:00 | Friday :- 08:00 - 21:00 | Saturday :- 08:00 - 21:00 | Sunday :- 08:00 - 21:00,https://locations.traderjoes.com/mi/northville/667,Trader Joes,1/21/2020,USA
27,Trader Joe'S Rancho Santa Margarita (27),33.6435026,-117.5962587,30652 Santa Margarita Pkwy Rancho Santa Margarita CA 92688,30652 Santa Margarita Pkwy,Rancho Santa Margarita,CA,92688,Orange,949-888-3640,Monday :- 08:00 - 21:00 | Tuesday :- 08:00 - 21:00 | Wednesday :- 08:00 - 21:00 | Thursday :- 08:00 - 21:00 | Friday :- 08:00 - 21:00 | Saturday :- 08:00 - 21:00 | Sunday :- 08:00 - 21:00,https://locations.traderjoes.com/ca/rancho-santa-margarita/27,Trader Joes,1/21/2020,USA
622,Trader Joe'S Washington - Capitol Hill (622),38.88453,-76.99552,750 Pennsylvania Ave Se Washington DC 20003,750 Pennsylvania Ave Se,Washington,DC,20003,District of Columbia,202-698-0190,Monday :- 08:00 - 22:00 | Tuesday :- 08:00 - 22:00 | Wednesday :- 08:00 - 22:00 | Thursday :- 08:00 - 22:00 | Friday :- 08:00 - 22:00 | Saturday :- 08:00 - 22:00 | Sunday :- 08:00 - 22:00,https://locations.traderjoes.com/dc/washington/622,Trader Joes,1/21/2020,USA
545,Trader Joe'S Upper West Side (545),40.79070091,-73.96909727,670 Columbus Ave New York NY 10025,670 Columbus Ave,New York,NY,10025,New York,212-678-1680,Monday :- 08:00 - 22:00 | Tuesday :- 08:00 - 22:00 | Wednesday :- 08:00 - 22:00 | Thursday :- 08:00 - 22:00 | Friday :- 08:00 - 22:00 | Saturday :- 08:00 - 22:00 | Sunday :- 08:00 - 22:00,https://locations.traderjoes.com/ny/new-york/545,Trader Joes,1/21/2020,USA
519,Trader Joe'S Portland (519),43.66203445,-70.2650475,87 Marginal Way Portland ME 04101,87 Marginal Way,Portland,ME,04101,Cumberland,207-699-3799,Monday :- 08:00 - 21:00 | Tuesday :- 08:00 - 21:00 | Wednesday :- 08:00 - 21:00 | Thursday :- 08:00 - 21:00 | Friday :- 08:00 - 21:00 | Saturday :- 08:00 - 21:00 | Sunday :- 08:00 - 21:00,https://locations.traderjoes.com/me/portland/519,Trader Joes,1/21/2020,USA
647,Trader Joe'S Alexandria (647),38.81072327,-77.04457061,612 N Saint Asaph St Alexandria VA 22314,612 N Saint Asaph St,Alexandria,VA,22314,Alexandria city,703-548-0611,Monday :- 08:00 - 21:00 | Tuesday :- 08:00 - 21:00 | Wednesday :- 08:00 - 21:00 | Thursday :- 08:00 - 21:00 | Friday :- 08:00 - 21:00 | Saturday :- 08:00 - 21:00 | Sunday :- 08:00 - 21:00,https://locations.traderjoes.com/va/alexandria/647,Trader Joes,1/21/2020,USA
123,Trader Joe'S Walnut Creek (123),37.89312199,-122.0612563,1372 S California Blvd Walnut Creek CA 94596,1372 S California Blvd,Walnut Creek,CA,94596,Contra Costa,925-945-1674,Monday :- 08:00 - 21:00 | Tuesday :- 08:00 - 21:00 | Wednesday :- 08:00 - 21:00 | Thursday :- 08:00 - 21:00 | Friday :- 08:00 - 21:00 | Saturday :- 08:00 - 21:00 | Sunday :- 08:00 - 21:00,https://locations.traderjoes.com/ca/walnut-creek/123,Trader Joes,1/21/2020,USA
693,Trader Joe'S Chesterfield (693),38.64394513,-90.56618152,1679 Clarkson Rd Chesterfield MO 63017,1679 Clarkson Rd,Chesterfield,MO,63017,St. Louis,636-536-7846,Monday :- 09:00 - 21:00 | Tuesday :- 09:00 - 21:00 | Wednesday :- 09:00 - 21:00 | Thursday :- 09:00 - 21:00 | Friday :- 09:00 - 21:00 | Saturday :- 09:00 - 21:00 | Sunday :- 09:00 - 21:00,https://locations.traderjoes.com/mo/chesterfield/693,Trader Joes,1/21/2020,USA
19,Trader Joe'S San Francisco - North Beach (19),37.80563,-122.41359,401 Bay St San Francisco CA 94133,401 Bay St,San Francisco,CA,94133,San Francisco,415-351-1013,Monday :- 08:00 - 21:00 | Tuesday :- 08:00 - 21:00 | Wednesday :- 08:00 - 21:00 | Thursday :- 08:00 - 21:00 | Friday :- 08:00 - 21:00 | Saturday :- 08:00 - 21:00 | Sunday :- 08:00 - 21:00,https://locations.traderjoes.com/ca/san-francisco/19,Trader Joes,1/21/2020,USA
70,Trader Joe'S Sacramento (70),38.61800588,-121.4009053,2625 Marconi Ave Sacramento CA 95821,2625 Marconi Ave,Sacramento,CA,95821,Sacramento,916-481-8797,Monday :- 08:00 - 21:00 | Tuesday :- 08:00 - 21:00 | Wednesday :- 08:00 - 21:00 | Thursday :- 08:00 - 21:00 | Friday :- 08:00 - 21:00 | Saturday :- 08:00 - 21:00 | Sunday :- 08:00 - 21:00,https://locations.traderjoes.com/ca/sacramento/70,Trader Joes,1/21/2020,USA
305,Trader Joe'S Colorado Springs (305),38.90519073,-104.8171088,5342 N Nevada Ave Colorado Springs CO 80918,5342 N Nevada Ave,Colorado Springs,CO,80918,El Paso,719-264-0123,Monday :- 08:00 - 21:00 | Tuesday :- 08:00 - 21:00 | Wednesday :- 08:00 - 21:00 | Thursday :- 08:00 - 21:00 | Friday :- 08:00 - 21:00 | Saturday :- 08:00 - 21:00 | Sunday :- 08:00 - 21:00,https://locations.traderjoes.com/co/colorado-springs/305,Trader Joes,1/21/2020,USA
747,Trader Joe'S Wilmington (747),34.2113145,-77.8866205,1437 S College Rd Wilmington NC 28403,1437 S College Rd,Wilmington,NC,28403,New Hanover,910-395-5173,Monday :- 08:00 - 21:00 | Tuesday :- 08:00 - 21:00 | Wednesday :- 08:00 - 21:00 | Thursday :- 08:00 - 21:00 | Friday :- 08:00 - 21:00 | Saturday :- 08:00 - 21:00 | Sunday :- 08:00 - 21:00,https://locations.traderjoes.com/nc/wilmington/747,Trader Joes,1/21/2020,USA
740,Trader Joe'S Asheville (740),35.60320455,-82.55316727,120 Merrimon Ave Asheville NC 28801,120 Merrimon Ave,Asheville,NC,28801,Buncombe,828-232-5078,Monday :- 08:00 - 21:00 | Tuesday :- 08:00 - 21:00 | Wednesday :- 08:00 - 21:00 | Thursday :- 08:00 - 21:00 | Friday :- 08:00 - 21:00 | Saturday :- 08:00 - 21:00 | Sunday :- 08:00 - 21:00,https://locations.traderjoes.com/nc/asheville/740,Trader Joes,1/21/2020,USA
151,Trader Joe'S Bellingham (151),48.76186163,-122.464931,2410 James St Bellingham WA 98225,2410 James St,Bellingham,WA,98225,Whatcom,360-734-5166,Monday :- 08:00 - 21:00 | Tuesday :- 08:00 - 21:00 | Wednesday :- 08:00 - 21:00 | Thursday :- 08:00 - 21:00 | Friday :- 08:00 - 21:00 | Saturday :- 08:00 - 21:00 | Sunday :- 08:00 - 21:00,https://locations.traderjoes.com/wa/bellingham/151,Trader Joes,1/21/2020,USA
536,Trader Joe'S Amherst (536),42.99763711,-78.82236822,1565 Niagara Falls Blvd Buffalo NY 14228,1565 Niagara Falls Blvd,Buffalo,NY,14228,Erie,716-833-4687,Monday :- 09:00 - 21:00 | Tuesday :- 09:00 - 21:00 | Wednesday :- 09:00 - 21:00 | Thursday :- 09:00 - 21:00 | Friday :- 09:00 - 21:00 | Saturday :- 09:00 - 21:00 | Sunday :- 09:00 - 21:00,https://locations.traderjoes.com/ny/buffalo/536,Trader Joes,1/21/2020,USA
45,Trader Joe'S Ventura (45),34.25781119,-119.2109698,1795 S. Victoria Ave Ventura CA 93003,1795 S. Victoria Ave,Ventura,CA,93003,Ventura,805-650-9977,Monday :- 08:00 - 21:00 | Tuesday :- 08:00 - 21:00 | Wednesday :- 08:00 - 21:00 | Thursday :- 08:00 - 21:00 | Friday :- 08:00 - 21:00 | Saturday :- 08:00 - 21:00 | Sunday :- 08:00 - 21:00,https://locations.traderjoes.com/ca/ventura/45,Trader Joes,1/21/2020,USA
544,Trader Joe'S New York - Murray Hill (544),40.74445,-73.97906,200 E 32Nd St New York NY 10016,200 E 32Nd St,New York,NY,10016,New York,212-889-3279,Monday :- 08:00 - 22:00 | Tuesday :- 08:00 - 22:00 | Wednesday :- 08:00 - 22:00 | Thursday :- 08:00 - 22:00 | Friday :- 08:00 - 22:00 | Saturday :- 08:00 - 22:00 | Sunday :- 08:00 - 22:00,https://locations.traderjoes.com/ny/new-york/544,Trader Joes,1/21/2020,USA
427,Trader Joe'S Houston - Memorial Area (427),29.75202925,-95.5012,1440 South Voss Road Houston TX 77057,1440 South Voss Road,Houston,TX,77057,Harris,713-266-2377,Monday :- 08:00 - 21:00 | Tuesday :- 08:00 - 21:00 | Wednesday :- 08:00 - 21:00 | Thursday :- 08:00 - 21:00 | Friday :- 08:00 - 21:00 | Saturday :- 08:00 - 21:00 | Sunday :- 08:00 - 21:00,https://locations.traderjoes.com/tx/houston/427,Trader Joes,1/21/2020,USA
105,Trader Joe'S Escondido (105),33.09898289,-117.0725997,1885 S Centre City Pkwy Escondido CA 92025,1885 S Centre City Pkwy,Escondido,CA,92025,San Diego,760-233-4020,Monday :- 08:00 - 21:00 | Tuesday :- 08:00 - 21:00 | Wednesday :- 08:00 - 21:00 | Thursday :- 08:00 - 21:00 | Friday :- 08:00 - 21:00 | Saturday :- 08:00 - 21:00 | Sunday :- 08:00 - 21:00,https://locations.traderjoes.com/ca/escondido/105,Trader Joes,1/21/2020,USA
509,Trader Joe'S West Newton (509),42.34946,-71.21973,1121 Washington St West Newton MA 02465,1121 Washington St,West Newton,MA,02465,Middlesex,617-244-1620,Monday :- 08:00 - 21:00 | Tuesday :- 08:00 - 21:00 | Wednesday :- 08:00 - 21:00 | Thursday :- 08:00 - 21:00 | Friday :- 08:00 - 21:00 | Saturday :- 08:00 - 21:00 | Sunday :- 08:00 - 21:00,https://locations.traderjoes.com/ma/west-newton/509,Trader Joes,1/21/2020,USA
722,Trader Joe'S Lincoln (722),40.74096298,-96.67487335,3120 Pine Lake Rd Lincoln NE 68516,3120 Pine Lake Rd,Lincoln,NE,68516,Lancaster,402-328-0120,Monday :- 08:00 - 21:00 | Tuesday :- 08:00 - 21:00 | Wednesday :- 08:00 - 21:00 | Thursday :- 08:00 - 21:00 | Friday :- 08:00 - 21:00 | Saturday :- 08:00 - 21:00 | Sunday :- 08:00 - 21:00,https://locations.traderjoes.com/ne/lincoln/722,Trader Joes,1/21/2020,USA
728,Trader Joe'S Coralville (728),41.6830083,-91.5648333,920 Ponseti Way Coralville IA 52241,920 Ponseti Way,Coralville,IA,52241,Johnson,319-351-7223,Monday :- 08:00 - 21:00 | Tuesday :- 08:00 - 21:00 | Wednesday :- 08:00 - 21:00 | Thursday :- 08:00 - 21:00 | Friday :- 08:00 - 21:00 | Saturday :- 08:00 - 21:00 | Sunday :- 08:00 - 21:00,https://locations.traderjoes.com/ia/coralville/728,Trader Joes,1/21/2020,USA
428,Trader Joe'S The Woodlands (428),30.17622,-95.53722531,10868 Kuykendahl Road The Woodlands TX 77381,10868 Kuykendahl Road,The Woodlands,TX,77381,Montgomery,281-465-0254,Monday :- 08:00 - 21:00 | Tuesday :- 08:00 - 21:00 | Wednesday :- 08:00 - 21:00 | Thursday :- 08:00 - 21:00 | Friday :- 08:00 - 21:00 | Saturday :- 08:00 - 21:00 | Sunday :- 08:00 - 21:00,https://locations.traderjoes.com/tx/the-woodlands/428,Trader Joes,1/21/2020,USA
35,Trader Joe'S Costa Mesa (35),33.63619107,-117.9250109,640 W 17Th St Costa Mesa CA 92627,640 W 17Th St,Costa Mesa,CA,92627,Orange,949-642-5134,Monday :- 08:00 - 21:00 | Tuesday :- 08:00 - 21:00 | Wednesday :- 08:00 - 21:00 | Thursday :- 08:00 - 21:00 | Friday :- 08:00 - 21:00 | Saturday :- 08:00 - 21:00 | Sunday :- 08:00 - 21:00,https://locations.traderjoes.com/ca/costa-mesa/35,Trader Joes,1/21/2020,USA
60,Trader Joe'S Concord (60),37.97964477,-122.0574029,1150 Concord Ave Concord CA 94520,1150 Concord Ave,Concord,CA,94520,Contra Costa,925-689-2990,Monday :- 08:00 - 21:00 | Tuesday :- 08:00 - 21:00 | Wednesday :- 08:00 - 21:00 | Thursday :- 08:00 - 21:00 | Friday :- 08:00 - 21:00 | Saturday :- 08:00 - 21:00 | Sunday :- 08:00 - 21:00,https://locations.traderjoes.com/ca/concord/60,Trader Joes,1/21/2020,USA
351,Trader Joe'S Cottonwood Heights (351),40.6242816,-111.8552464,6989 S 1300 E Cottonwood Heights UT 84047,6989 S 1300 E,Cottonwood Heights,UT,84047,Salt Lake,801-562-3024,Monday :- 08:00 - 21:00 | Tuesday :- 08:00 - 21:00 | Wednesday :- 08:00 - 21:00 | Thursday :- 08:00 - 21:00 | Friday :- 08:00 - 21:00 | Saturday :- 08:00 - 21:00 | Sunday :- 08:00 - 21:00,https://locations.traderjoes.com/ut/cottonwood-heights/351,Trader Joes,1/21/2020,USA
117,Trader Joe'S Arroyo Grande (117),35.12665897,-120.5947951,955 Rancho Pkwy Arroyo Grande CA 93420,955 Rancho Pkwy,Arroyo Grande,CA,93420,San Luis Obispo,805-474-6114,Monday :- 08:00 - 21:00 | Tuesday :- 08:00 - 21:00 | Wednesday :- 08:00 - 21:00 | Thursday :- 08:00 - 21:00 | Friday :- 08:00 - 21:00 | Saturday :- 08:00 - 21:00 | Sunday :- 08:00 - 21:00,https://locations.traderjoes.com/ca/arroyo-grande/117,Trader Joes,1/21/2020,USA
17,Trader Joe'S Silver Lake (17),34.10741737,-118.2720874,2738 Hyperion Ave Los Angeles CA 90027,2738 Hyperion Ave,Los Angeles,CA,90027,Los Angeles,323-665-6774,Monday :- 08:00 - 21:00 | Tuesday :- 08:00 - 21:00 | Wednesday :- 08:00 - 21:00 | Thursday :- 08:00 - 21:00 | Friday :- 08:00 - 21:00 | Saturday :- 08:00 - 21:00 | Sunday :- 08:00 - 21:00,https://locations.traderjoes.com/ca/los-angeles/17,Trader Joes,1/21/2020,USA
114,Trader Joe'S Camarillo (114),34.21969289,-119.0507215,363 Carmen Dr Camarillo CA 93010,363 Carmen Dr,Camarillo,CA,93010,Ventura,805-388-1925,Monday :- 08:00 - 21:00 | Tuesday :- 08:00 - 21:00 | Wednesday :- 08:00 - 21:00 | Thursday :- 08:00 - 21:00 | Friday :- 08:00 - 21:00 | Saturday :- 08:00 - 21:00 | Sunday :- 08:00 - 21:00,https://locations.traderjoes.com/ca/camarillo/114,Trader Joes,1/21/2020,USA
629,Trader Joe'S State College (629),40.8096812,-77.9035549,243 Patriot Lane State College PA 16803,243 Patriot Lane,State College,PA,16803,Centre,814-234-2224,Monday :- 09:00 - 21:00 | Tuesday :- 09:00 - 21:00 | Wednesday :- 09:00 - 21:00 | Thursday :- 09:00 - 21:00 | Friday :- 09:00 - 21:00 | Saturday :- 09:00 - 21:00 | Sunday :- 09:00 - 21:00,https://locations.traderjoes.com/pa/state-college/629,Trader Joes,1/21/2020,USA
237,Trader Joe'S Los Angeles - Burton Way (237),34.07166,-118.37707,8500 Burton Way Los Angeles CA 90048,8500 Burton Way,Los Angeles,CA,90048,Los Angeles,310-248-2984,Monday :- 09:00 - 21:00 | Tuesday :- 09:00 - 21:00 | Wednesday :- 09:00 - 21:00 | Thursday :- 09:00 - 21:00 | Friday :- 09:00 - 21:00 | Saturday :- 09:00 - 21:00 | Sunday :- 09:00 - 21:00,https://locations.traderjoes.com/ca/los-angeles/237,Trader Joes,1/21/2020,USA
408,Trader Joe'S Mckinney (408),33.17434391,-96.64196575,2851 Craig Dr Ste 100 Mckinney TX 75070,2851 Craig Dr Ste 100,Mckinney,TX,75070,Collin,214-491-1893,Monday :- 08:00 - 21:00 | Tuesday :- 08:00 - 21:00 | Wednesday :- 08:00 - 21:00 | Thursday :- 08:00 - 21:00 | Friday :- 08:00 - 21:00 | Saturday :- 08:00 - 21:00 | Sunday :- 08:00 - 21:00,https://locations.traderjoes.com/tx/mckinney/408,Trader Joes,1/21/2020,USA
100,Trader Joe'S San Francisco (100),37.78312228,-122.44719,3 Masonic Ave San Francisco CA 94118,3 Masonic Ave,San Francisco,CA,94118,San Francisco,415-346-9964,Monday :- 08:00 - 21:00 | Tuesday :- 08:00 - 21:00 | Wednesday :- 08:00 - 21:00 | Thursday :- 08:00 - 21:00 | Friday :- 08:00 - 21:00 | Saturday :- 08:00 - 21:00 | Sunday :- 08:00 - 21:00,https://locations.traderjoes.com/ca/san-francisco/100,Trader Joes,1/21/2020,USA
461,Trader Joe'S Oklahoma City - Nichols Hills (461),35.53761495,-97.53026721,6409 Avondale Dr Nichols Hills OK 73116,6409 Avondale Dr,Nichols Hills,OK,73116,Oklahoma,405-843-5655,Monday :- 08:00 - 21:00 | Tuesday :- 08:00 - 21:00 | Wednesday :- 08:00 - 21:00 | Thursday :- 08:00 - 21:00 | Friday :- 08:00 - 21:00 | Saturday :- 08:00 - 21:00 | Sunday :- 08:00 - 21:00,https://locations.traderjoes.com/ok/nichols-hills/461,Trader Joes,1/21/2020,USA
627,Trader Joe'S Lexington Grocery (627),38.0051251,-84.51880959,2326 Nicholasville Rd Lexington KY 40503,2326 Nicholasville Rd,Lexington,KY,40503,Fayette,859-313-5030,Monday :- 08:00 - 21:00 | Tuesday :- 08:00 - 21:00 | Wednesday :- 08:00 - 21:00 | Thursday :- 08:00 - 21:00 | Friday :- 08:00 - 21:00 | Saturday :- 08:00 - 21:00 | Sunday :- 08:00 - 21:00,https://locations.traderjoes.com/ky/lexington/627,Trader Joes,1/21/2020,USA
165,Trader Joe'S Santa Fe (165),35.67395179,-105.9528964,530 W Cordova Rd Santa Fe NM 87505,530 W Cordova Rd,Santa Fe,NM,87505,Santa Fe,505-995-8145,Monday :- 08:00 - 21:00 | Tuesday :- 08:00 - 21:00 | Wednesday :- 08:00 - 21:00 | Thursday :- 08:00 - 21:00 | Friday :- 08:00 - 21:00 | Saturday :- 08:00 - 21:00 | Sunday :- 08:00 - 21:00,https://locations.traderjoes.com/nm/santa-fe/165,Trader Joes,1/21/2020,USA
767,Trader Joe'S St. Petersburg (767),27.79705,-82.63854571,2742 4Th St N Saint Petersburg FL 33704,2742 4Th St N,Saint Petersburg,FL,33704,Pinellas,727-824-0907,Monday :- 08:00 - 21:00 | Tuesday :- 08:00 - 21:00 | Wednesday :- 08:00 - 21:00 | Thursday :- 08:00 - 21:00 | Friday :- 08:00 - 21:00 | Saturday :- 08:00 - 21:00 | Sunday :- 08:00 - 21:00,https://locations.traderjoes.com/fl/st.-petersburg/767,Trader Joes,1/21/2020,USA
642,Trader Joe'S Rockville (642),39.05778288,-77.12061204,12268-H Rockville Pike Rockville MD 20852,12268-H Rockville Pike,Rockville,MD,20852,Montgomery,301-468-6656,Monday :- 08:00 - 21:00 | Tuesday :- 08:00 - 21:00 | Wednesday :- 08:00 - 21:00 | Thursday :- 08:00 - 21:00 | Friday :- 08:00 - 21:00 | Saturday :- 08:00 - 21:00 | Sunday :- 08:00 - 21:00,https://locations.traderjoes.com/md/rockville/642,Trader Joes,1/21/2020,USA
524,Trader Joe'S Orange (524),41.25247006,-73.01921118,560 Boston Post Rd Orange CT 06477,560 Boston Post Rd,Orange,CT,06477,New Haven,203-795-5505,Monday :- 09:00 - 21:00 | Tuesday :- 09:00 - 21:00 | Wednesday :- 09:00 - 21:00 | Thursday :- 09:00 - 21:00 | Friday :- 09:00 - 21:00 | Saturday :- 09:00 - 21:00 | Sunday :- 09:00 - 21:00,https://locations.traderjoes.com/ct/orange/524,Trader Joes,1/21/2020,USA
152,Trader Joe'S Clackamas (152),45.45576385,-122.57914,9345 Se 82Nd Ave Clackamas OR 97086,9345 Se 82Nd Ave,Clackamas,OR,97086,Clackamas,503-771-6300,Monday :- 08:00 - 21:00 | Tuesday :- 08:00 - 21:00 | Wednesday :- 08:00 - 21:00 | Thursday :- 08:00 - 21:00 | Friday :- 08:00 - 21:00 | Saturday :- 08:00 - 21:00 | Sunday :- 08:00 - 21:00,https://locations.traderjoes.com/or/clackamas/152,Trader Joes,1/21/2020,USA
215,Trader Joe'S Olympic Blvd (215),34.03352184,-118.449052,11755 Olympic Blvd Los Angeles CA 90064,11755 Olympic Blvd,Los Angeles,CA,90064,Los Angeles,310-477-5949,Monday :- 08:00 - 21:00 | Tuesday :- 08:00 - 21:00 | Wednesday :- 08:00 - 21:00 | Thursday :- 08:00 - 21:00 | Friday :- 08:00 - 21:00 | Saturday :- 08:00 - 21:00 | Sunday :- 08:00 - 21:00,https://locations.traderjoes.com/ca/los-angeles/215,Trader Joes,1/21/2020,USA
501,Trader Joe'S Brookline (501),42.34206412,-71.12109529,1317 Beacon St Brookline MA 02446,1317 Beacon St,Brookline,MA,02446,Norfolk,617-278-9997,Monday :- 08:00 - 22:00 | Tuesday :- 08:00 - 22:00 | Wednesday :- 08:00 - 22:00 | Thursday :- 08:00 - 22:00 | Friday :- 08:00 - 22:00 | Saturday :- 08:00 - 22:00 | Sunday :- 08:00 - 22:00,https://locations.traderjoes.com/ma/brookline/501,Trader Joes,1/21/2020,USA
197,Trader Joe'S Tustin (197),33.74785,-117.80888,1198 Irvine Blvd. Tustin CA 92780,1198 Irvine Blvd.,Tustin,CA,92780,Orange,714-505-3289,Monday :- 08:00 - 21:00 | Tuesday :- 08:00 - 21:00 | Wednesday :- 08:00 - 21:00 | Thursday :- 08:00 - 21:00 | Friday :- 08:00 - 21:00 | Saturday :- 08:00 - 21:00 | Sunday :- 08:00 - 21:00,https://locations.traderjoes.com/ca/tustin/197,Trader Joes,1/21/2020,USA
134,Trader Joe'S Federal Way (134),47.31513,-122.3109254,1758 S 320Th St Federal Way WA 98003,1758 S 320Th St,Federal Way,WA,98003,King,253-941-6138,Monday :- 08:00 - 21:00 | Tuesday :- 08:00 - 21:00 | Wednesday :- 08:00 - 21:00 | Thursday :- 08:00 - 21:00 | Friday :- 08:00 - 21:00 | Saturday :- 08:00 - 21:00 | Sunday :- 08:00 - 21:00,https://locations.traderjoes.com/wa/federal-way/134,Trader Joes,1/21/2020,USA
25,Trader Joe'S Encinitas (25),33.04732898,-117.25951,115 N El Camino Real Encinitas CA 92024,115 N El Camino Real,Encinitas,CA,92024,San Diego,760-634-2114,Monday :- 08:00 - 21:00 | Tuesday :- 08:00 - 21:00 | Wednesday :- 08:00 - 21:00 | Thursday :- 08:00 - 21:00 | Friday :- 08:00 - 21:00 | Saturday :- 08:00 - 21:00 | Sunday :- 08:00 - 21:00,https://locations.traderjoes.com/ca/encinitas/25,Trader Joes,1/21/2020,USA
678,Trader Joe'S Ann Arbor (678),42.25957459,-83.71321319,2398 East Stadium Blvd Ann Arbor MI 48104,2398 East Stadium Blvd,Ann Arbor,MI,48104,Washtenaw,734-975-2455,Monday :- 08:00 - 21:00 | Tuesday :- 08:00 - 21:00 | Wednesday :- 08:00 - 21:00 | Thursday :- 08:00 - 21:00 | Friday :- 08:00 - 21:00 | Saturday :- 08:00 - 21:00 | Sunday :- 08:00 - 21:00,https://locations.traderjoes.com/mi/ann-arbor/678,Trader Joes,1/21/2020,USA
59,Trader Joe'S Santa Barbara (59),34.42408923,-119.6822831,222 North Milpas Street Santa Barbara CA 93103,222 North Milpas Street,Santa Barbara,CA,93103,Santa Barbara,805-560-1182,Monday :- 08:00 - 21:00 | Tuesday :- 08:00 - 21:00 | Wednesday :- 08:00 - 21:00 | Thursday :- 08:00 - 21:00 | Friday :- 08:00 - 21:00 | Saturday :- 08:00 - 21:00 | Sunday :- 08:00 - 21:00,https://locations.traderjoes.com/ca/santa-barbara/59,Trader Joes,1/21/2020,USA
156,Trader Joe'S Olympia (156),47.03370531,-122.9392459,1530 Black Lake Blvd Sw Olympia WA 98502,1530 Black Lake Blvd Sw,Olympia,WA,98502,Thurston,360-352-7440,Monday :- 08:00 - 21:00 | Tuesday :- 08:00 - 21:00 | Wednesday :- 08:00 - 21:00 | Thursday :- 08:00 - 21:00 | Friday :- 08:00 - 21:00 | Saturday :- 08:00 - 21:00 | Sunday :- 08:00 - 21:00,https://locations.traderjoes.com/wa/olympia/156,Trader Joes,1/21/2020,USA
68,Trader Joe'S Sunnyvale (68),37.36875304,-122.0355984,316 West El Camino Real Sunnyvale CA 94087,316 West El Camino Real,Sunnyvale,CA,94087,Santa Clara,408-736-7573,Monday :- 08:00 - 21:00 | Tuesday :- 08:00 - 21:00 | Wednesday :- 08:00 - 21:00 | Thursday :- 08:00 - 21:00 | Friday :- 08:00 - 21:00 | Saturday :- 08:00 - 21:00 | Sunday :- 08:00 - 21:00,https://locations.traderjoes.com/ca/sunnyvale/68,Trader Joes,1/21/2020,USA
179,Trader Joe'S Pasadena - S Lake Ave (179),34.13980951,-118.1323554,345 S Lake Ave Pasadena CA 91101,345 S Lake Ave,Pasadena,CA,91101,Los Angeles,626-395-9553,Monday :- 08:00 - 21:00 | Tuesday :- 08:00 - 21:00 | Wednesday :- 08:00 - 21:00 | Thursday :- 08:00 - 21:00 | Friday :- 08:00 - 21:00 | Saturday :- 08:00 - 21:00 | Sunday :- 08:00 - 21:00,https://locations.traderjoes.com/ca/pasadena/179,Trader Joes,1/21/2020,USA
517,Trader Joe'S Cambridge Fresh Pond (517),42.38934,-71.14276,211 Alewife Brook Pkwy Cambridge MA 02138,211 Alewife Brook Pkwy,Cambridge,MA,02138,Middlesex,617-498-3201,Monday :- 08:00 - 22:00 | Tuesday :- 08:00 - 22:00 | Wednesday :- 08:00 - 22:00 | Thursday :- 08:00 - 22:00 | Friday :- 08:00 - 22:00 | Saturday :- 08:00 - 22:00 | Sunday :- 08:00 - 22:00,https://locations.traderjoes.com/ma/cambridge/517,Trader Joes,1/21/2020,USA
555,Trader Joe'S Plainview (555),40.78133989,-73.50280579,425 S Oyster Bay Rd Plainview NY 11803,425 S Oyster Bay Rd,Plainview,NY,11803,Nassau,516-933-6900,Monday :- 08:00 - 21:00 | Tuesday :- 08:00 - 21:00 | Wednesday :- 08:00 - 21:00 | Thursday :- 08:00 - 21:00 | Friday :- 08:00 - 21:00 | Saturday :- 08:00 - 21:00 | Sunday :- 08:00 - 21:00,https://locations.traderjoes.com/ny/plainview/555,Trader Joes,1/21/2020,USA
769,Trader Joe'S Jacksonville (769),30.17315867,-81.62867758,11112 San Jose Blvd Jacksonville FL 32223,11112 San Jose Blvd,Jacksonville,FL,32223,Duval,904-880-0582,Monday :- 08:00 - 21:00 | Tuesday :- 08:00 - 21:00 | Wednesday :- 08:00 - 21:00 | Thursday :- 08:00 - 21:00 | Friday :- 08:00 - 21:00 | Saturday :- 08:00 - 21:00 | Sunday :- 08:00 - 21:00,https://locations.traderjoes.com/fl/jacksonville/769,Trader Joes,1/21/2020,USA
743,Trader Joe'S Charlotte - North (743),35.336278,-80.7536149,1820 E Arbors Dr Charlotte NC 28262,1820 E Arbors Dr,Charlotte,NC,28262,Mecklenburg,704-688-9578,Monday :- 08:00 - 21:00 | Tuesday :- 08:00 - 21:00 | Wednesday :- 08:00 - 21:00 | Thursday :- 08:00 - 21:00 | Friday :- 08:00 - 21:00 | Saturday :- 08:00 - 21:00 | Sunday :- 08:00 - 21:00,https://locations.traderjoes.com/nc/charlotte/743,Trader Joes,1/21/2020,USA
28,Trader Joe'S San Dimas (28),34.1066104,-117.82402,856 W Arrow Hwy San Dimas CA 91773,856 W Arrow Hwy,San Dimas,CA,91773,Los Angeles,909-305-4757,Monday :- 08:00 - 21:00 | Tuesday :- 08:00 - 21:00 | Wednesday :- 08:00 - 21:00 | Thursday :- 08:00 - 21:00 | Friday :- 08:00 - 21:00 | Saturday :- 08:00 - 21:00 | Sunday :- 08:00 - 21:00,https://locations.traderjoes.com/ca/san-dimas/28,Trader Joes,1/21/2020,USA
670,Trader Joe'S Indianapolis - W 86Th (670),39.91188289,-86.21139604,2902 W 86Th St Indianapolis IN 46268,2902 W 86Th St,Indianapolis,IN,46268,Marion,317-337-1880,Monday :- 08:00 - 21:00 | Tuesday :- 08:00 - 21:00 | Wednesday :- 08:00 - 21:00 | Thursday :- 08:00 - 21:00 | Friday :- 08:00 - 21:00 | Saturday :- 08:00 - 21:00 | Sunday :- 08:00 - 21:00,https://locations.traderjoes.com/in/indianapolis/670,Trader Joes,1/21/2020,USA
505,Trader Joe'S Arlington (505),42.42488158,-71.18712684,1427 Massachusetts Ave Arlington MA 02476,1427 Massachusetts Ave,Arlington,MA,02476,Middlesex,781-646-9138,Monday :- 08:00 - 21:00 | Tuesday :- 08:00 - 21:00 | Wednesday :- 08:00 - 21:00 | Thursday :- 08:00 - 21:00 | Friday :- 08:00 - 21:00 | Saturday :- 08:00 - 21:00 | Sunday :- 08:00 - 21:00,https://locations.traderjoes.com/ma/arlington/505,Trader Joes,1/21/2020,USA
110,Trader Joe'S Goleta (110),34.4412883,-119.8247948,5767 Calle Real Goleta CA 93117,5767 Calle Real,Goleta,CA,93117,Santa Barbara,805-692-2234,Monday :- 08:00 - 21:00 | Tuesday :- 08:00 - 21:00 | Wednesday :- 08:00 - 21:00 | Thursday :- 08:00 - 21:00 | Friday :- 08:00 - 21:00 | Saturday :- 08:00 - 21:00 | Sunday :- 08:00 - 21:00,https://locations.traderjoes.com/ca/goleta/110,Trader Joes,1/21/2020,USA
300,Trader Joe'S Denver Grocery (300),39.72835668,-104.94061,750 N Colorado Blvd Denver CO 80206,750 N Colorado Blvd,Denver,CO,80206,Denver,303-321-1003,Monday :- 08:00 - 21:00 | Tuesday :- 08:00 - 21:00 | Wednesday :- 08:00 - 21:00 | Thursday :- 08:00 - 21:00 | Friday :- 08:00 - 21:00 | Saturday :- 08:00 - 21:00 | Sunday :- 08:00 - 21:00,https://locations.traderjoes.com/co/denver/300,Trader Joes,1/21/2020,USA
764,Trader Joe'S Gainesville (764),29.62151212,-82.37861033,3724 Sw Archer Rd Gainesville FL 32608,3724 Sw Archer Rd,Gainesville,FL,32608,Alachua,352-378-9321,Monday :- 08:00 - 21:00 | Tuesday :- 08:00 - 21:00 | Wednesday :- 08:00 - 21:00 | Thursday :- 08:00 - 21:00 | Friday :- 08:00 - 21:00 | Saturday :- 08:00 - 21:00 | Sunday :- 08:00 - 21:00,https://locations.traderjoes.com/fl/gainesville/764,Trader Joes,1/21/2020,USA
681,Trader Joe'S Glenview (681),42.08015526,-87.79842684,1407 Waukegan Rd Glenview IL 60025,1407 Waukegan Rd,Glenview,IL,60025,Cook,847-657-7821,Monday :- 08:00 - 21:00 | Tuesday :- 08:00 - 21:00 | Wednesday :- 08:00 - 21:00 | Thursday :- 08:00 - 21:00 | Friday :- 08:00 - 21:00 | Saturday :- 08:00 - 21:00 | Sunday :- 08:00 - 21:00,https://locations.traderjoes.com/il/glenview/681,Trader Joes,1/21/2020,USA
619,Trader Joe'S Ashburn (619),39.0504121,-77.4526478,44755 Brimfield Dr Ashburn VA 20147,44755 Brimfield Dr,Ashburn,VA,20147,Loudoun,703-858-5993,Monday :- 08:00 - 21:00 | Tuesday :- 08:00 - 21:00 | Wednesday :- 08:00 - 21:00 | Thursday :- 08:00 - 21:00 | Friday :- 08:00 - 21:00 | Saturday :- 08:00 - 21:00 | Sunday :- 08:00 - 21:00,https://locations.traderjoes.com/va/ashburn/619,Trader Joes,1/21/2020,USA
688,Trader Joe'S Chicago (688),41.94954265,-87.6755402,3745 N Lincoln Ave Chicago IL 60613,3745 N Lincoln Ave,Chicago,IL,60613,Cook,773-248-4920,Monday :- 08:00 - 22:00 | Tuesday :- 08:00 - 22:00 | Wednesday :- 08:00 - 22:00 | Thursday :- 08:00 - 22:00 | Friday :- 08:00 - 22:00 | Saturday :- 08:00 - 22:00 | Sunday :- 08:00 - 22:00,https://locations.traderjoes.com/il/chicago/688,Trader Joes,1/21/2020,USA
251,Trader Joe'S Culver City (251),33.987,-118.38981,6150 Slauson Ave Culver City CA 90230,6150 Slauson Ave,Culver City,CA,90230,Los Angeles,310-313-0441,Monday :- 08:00 - 21:00 | Tuesday :- 08:00 - 21:00 | Wednesday :- 08:00 - 21:00 | Thursday :- 08:00 - 21:00 | Friday :- 08:00 - 21:00 | Saturday :- 08:00 - 21:00 | Sunday :- 08:00 - 21:00,https://locations.traderjoes.com/ca/culver-city/251,Trader Joes,1/21/2020,USA
69,Trader Joe'S Menlo Park (69),37.45111333,-122.1832767,720 Menlo Ave Menlo Park CA 94025,720 Menlo Ave,Menlo Park,CA,94025,San Mateo,650-323-2134,Monday :- 08:00 - 21:00 | Tuesday :- 08:00 - 21:00 | Wednesday :- 08:00 - 21:00 | Thursday :- 08:00 - 21:00 | Friday :- 08:00 - 21:00 | Saturday :- 08:00 - 21:00 | Sunday :- 08:00 - 21:00,https://locations.traderjoes.com/ca/menlo-park/69,Trader Joes,1/21/2020,USA
660,Trader Joe'S Virginia Beach (660),36.84841572,-76.02367642,503 Hilltop Plaza Virginia Beach VA 23454,503 Hilltop Plaza,Virginia Beach,VA,23454,Virginia Beach city,757-422-4840,Monday :- 08:00 - 21:00 | Tuesday :- 08:00 - 21:00 | Wednesday :- 08:00 - 21:00 | Thursday :- 08:00 - 21:00 | Friday :- 08:00 - 21:00 | Saturday :- 08:00 - 21:00 | Sunday :- 08:00 - 21:00,https://locations.traderjoes.com/va/virginia-beach/660,Trader Joes,1/21/2020,USA
755,Trader Joe'S Metairie (755),30.00324959,-90.15168673,2949 Veterans Blvd Metairie LA 70002,2949 Veterans Blvd,Metairie,LA,70002,Jefferson Parish,504-831-0253,Monday :- 08:00 - 21:00 | Tuesday :- 08:00 - 21:00 | Wednesday :- 08:00 - 21:00 | Thursday :- 08:00 - 21:00 | Friday :- 08:00 - 21:00 | Saturday :- 08:00 - 21:00 | Sunday :- 08:00 - 21:00,https://locations.traderjoes.com/la/metairie/755,Trader Joes,1/21/2020,USA
699,Trader Joe'S Algonquin (699),42.14913201,-88.33568944,1800 S Randall Rd Algonquin IL 60102,1800 S Randall Rd,Algonquin,IL,60102,McHenry,847-854-4886,Monday :- 08:00 - 21:00 | Tuesday :- 08:00 - 21:00 | Wednesday :- 08:00 - 21:00 | Thursday :- 08:00 - 21:00 | Friday :- 08:00 - 21:00 | Saturday :- 08:00 - 21:00 | Sunday :- 08:00 - 21:00,https://locations.traderjoes.com/il/algonquin/699,Trader Joes,1/21/2020,USA
405,Trader Joe'S Dallas West (405),32.8511851,-96.81841571,5550 W Lovers Lane Dallas TX 75209,5550 W Lovers Lane,Dallas,TX,75209,Dallas,214-366-0205,Monday :- 08:00 - 21:00 | Tuesday :- 08:00 - 21:00 | Wednesday :- 08:00 - 21:00 | Thursday :- 08:00 - 21:00 | Friday :- 08:00 - 21:00 | Saturday :- 08:00 - 21:00 | Sunday :- 08:00 - 21:00,https://locations.traderjoes.com/tx/dallas/405,Trader Joes,1/21/2020,USA
240,Trader Joe'S Los Angeles - 3Rd & Fairfax (240),34.07268308,-118.36143,175 South Fairfax Ave Los Angeles CA 90036,175 South Fairfax Ave,Los Angeles,CA,90036,Los Angeles,323-931-4012,Monday :- 09:00 - 21:00 | Tuesday :- 09:00 - 21:00 | Wednesday :- 09:00 - 21:00 | Thursday :- 09:00 - 21:00 | Friday :- 09:00 - 21:00 | Saturday :- 09:00 - 21:00 | Sunday :- 09:00 - 21:00,https://locations.traderjoes.com/ca/los-angeles/240,Trader Joes,1/21/2020,USA
727,Trader Joe'S Shoreview (727),45.05746592,-93.14473122,1041 Red Fox Rd Shoreview MN 55126,1041 Red Fox Rd,Shoreview,MN,55126,Ramsey,651-765-1398,Monday :- 08:00 - 21:00 | Tuesday :- 08:00 - 21:00 | Wednesday :- 08:00 - 21:00 | Thursday :- 08:00 - 21:00 | Friday :- 08:00 - 21:00 | Saturday :- 08:00 - 21:00 | Sunday :- 08:00 - 21:00,https://locations.traderjoes.com/mn/shoreview/727,Trader Joes,1/21/2020,USA
511,Trader Joe'S Acton (511),42.4827652,-71.4156723,145 Great Rd Acton MA 01720,145 Great Rd,Acton,MA,01720,Middlesex,978-266-8908,Monday :- 09:00 - 21:00 | Tuesday :- 09:00 - 21:00 | Wednesday :- 09:00 - 21:00 | Thursday :- 09:00 - 21:00 | Friday :- 09:00 - 21:00 | Saturday :- 09:00 - 21:00 | Sunday :- 09:00 - 21:00,https://locations.traderjoes.com/ma/acton/511,Trader Joes,1/21/2020,USA
127,Trader Joe'S Los Altos (127),37.33785,-122.0676444,2310 Homestead Rd Los Altos CA 94024,2310 Homestead Rd,Los Altos,CA,94024,Santa Clara,408-245-1917,Monday :- 09:00 - 21:00 | Tuesday :- 09:00 - 21:00 | Wednesday :- 09:00 - 21:00 | Thursday :- 09:00 - 21:00 | Friday :- 09:00 - 21:00 | Saturday :- 09:00 - 21:00 | Sunday :- 09:00 - 21:00,https://locations.traderjoes.com/ca/los-altos/127,Trader Joes,1/21/2020,USA
736,Trader Joe'S Athens (736),33.91683888,-83.44386388,1850 Epps Bridge Pkwy Athens GA 30606,1850 Epps Bridge Pkwy,Athens,GA,30606,Clarke,706-583-8934,Monday :- 09:00 - 21:00 | Tuesday :- 09:00 - 21:00 | Wednesday :- 09:00 - 21:00 | Thursday :- 09:00 - 21:00 | Friday :- 09:00 - 21:00 | Saturday :- 09:00 - 21:00 | Sunday :- 09:00 - 21:00,https://locations.traderjoes.com/ga/athens/736,Trader Joes,1/21/2020,USA
203,Trader Joe'S Oakland - Lakeshore (203),37.81048,-122.24485,3250 Lakeshore Ave Oakland CA 94610,3250 Lakeshore Ave,Oakland,CA,94610,Alameda,510-238-9076,Monday :- 08:00 - 21:00 | Tuesday :- 08:00 - 21:00 | Wednesday :- 08:00 - 21:00 | Thursday :- 08:00 - 21:00 | Friday :- 08:00 - 21:00 | Saturday :- 08:00 - 21:00 | Sunday :- 08:00 - 21:00,https://locations.traderjoes.com/ca/oakland/203,Trader Joes,1/21/2020,USA
73,Trader Joe'S Campbell (73),37.28970838,-121.93179,1875 Bascom Ave Campbell CA 95008,1875 Bascom Ave,Campbell,CA,95008,Santa Clara,408-369-7823,Monday :- 08:00 - 21:00 | Tuesday :- 08:00 - 21:00 | Wednesday :- 08:00 - 21:00 | Thursday :- 08:00 - 21:00 | Friday :- 08:00 - 21:00 | Saturday :- 08:00 - 21:00 | Sunday :- 08:00 - 21:00,https://locations.traderjoes.com/ca/campbell/73,Trader Joes,1/21/2020,USA
718,Trader Joe'S Rochester (718),44.00076,-92.47959,1200 16Th St Sw Rochester MN 55902,1200 16Th St Sw,Rochester,MN,55902,Olmsted,507-281-4411,Monday :- 08:00 - 21:00 | Tuesday :- 08:00 - 21:00 | Wednesday :- 08:00 - 21:00 | Thursday :- 08:00 - 21:00 | Friday :- 08:00 - 21:00 | Saturday :- 08:00 - 21:00 | Sunday :- 08:00 - 21:00,https://locations.traderjoes.com/mn/rochester/718,Trader Joes,1/21/2020,USA
148,Trader Joe'S University Place (148),47.22280739,-122.5370851,3800 Bridgeport Way W University Place WA 98466,3800 Bridgeport Way W,University Place,WA,98466,Pierce,253-460-2672,Monday :- 08:00 - 21:00 | Tuesday :- 08:00 - 21:00 | Wednesday :- 08:00 - 21:00 | Thursday :- 08:00 - 21:00 | Friday :- 08:00 - 21:00 | Saturday :- 08:00 - 21:00 | Sunday :- 08:00 - 21:00,https://locations.traderjoes.com/wa/university-place/148,Trader Joes,1/21/2020,USA
210,Trader Joe'S Irvine - Woodbury Town Center (210),33.70088438,-117.7417242,6222 Irvine Blvd Irvine CA 92620,6222 Irvine Blvd,Irvine,CA,92620,Orange,949-551-6402,Monday :- 09:00 - 21:00 | Tuesday :- 09:00 - 21:00 | Wednesday :- 09:00 - 21:00 | Thursday :- 09:00 - 21:00 | Friday :- 09:00 - 21:00 | Saturday :- 09:00 - 21:00 | Sunday :- 09:00 - 21:00,https://locations.traderjoes.com/ca/irvine/210,Trader Joes,1/21/2020,USA
714,Trader Joe'S Minnetonka (714),44.97326771,-93.42121698,11220 Wayzata Blvd Minnetonka MN 55305,11220 Wayzata Blvd,Minnetonka,MN,55305,Hennepin,952-417-9080,Monday :- 08:00 - 21:00 | Tuesday :- 08:00 - 21:00 | Wednesday :- 08:00 - 21:00 | Thursday :- 08:00 - 21:00 | Friday :- 08:00 - 21:00 | Saturday :- 08:00 - 21:00 | Sunday :- 08:00 - 21:00,https://locations.traderjoes.com/mn/minnetonka/714,Trader Joes,1/21/2020,USA
742,Trader Joe'S Charlotte - Piper Glen (742),35.07975743,-80.81658086,6418 Rea Rd Charlotte NC 28277,6418 Rea Rd,Charlotte,NC,28277,Mecklenburg,704-543-5249,Monday :- 08:00 - 21:00 | Tuesday :- 08:00 - 21:00 | Wednesday :- 08:00 - 21:00 | Thursday :- 08:00 - 21:00 | Friday :- 08:00 - 21:00 | Saturday :- 08:00 - 21:00 | Sunday :- 08:00 - 21:00,https://locations.traderjoes.com/nc/charlotte/742,Trader Joes,1/21/2020,USA
657,Trader Joe'S Williamsburg (657),37.27649,-76.74773,5000 Settlers Market Blvd Williamsburg VA 23188,5000 Settlers Market Blvd,Williamsburg,VA,23188,James City,757-259-2135,Monday :- 08:00 - 21:00 | Tuesday :- 08:00 - 21:00 | Wednesday :- 08:00 - 21:00 | Thursday :- 08:00 - 21:00 | Friday :- 08:00 - 21:00 | Saturday :- 08:00 - 21:00 | Sunday :- 08:00 - 21:00,https://locations.traderjoes.com/va/williamsburg/657,Trader Joes,1/21/2020,USA
50,Trader Joe'S West Hills (50),34.19242667,-118.62341,6751 Fallbrook Ave West Hills CA 91307,6751 Fallbrook Ave,West Hills,CA,91307,Los Angeles,818-347-2591,Monday :- 08:00 - 21:00 | Tuesday :- 08:00 - 21:00 | Wednesday :- 08:00 - 21:00 | Thursday :- 08:00 - 21:00 | Friday :- 08:00 - 21:00 | Saturday :- 08:00 - 21:00 | Sunday :- 08:00 - 21:00,https://locations.traderjoes.com/ca/west-hills/50,Trader Joes,1/21/2020,USA
56,Trader Joe'S Encino (56),34.17226983,-118.5175412,17640 Burbank Blvd Encino CA 91316,17640 Burbank Blvd,Encino,CA,91316,Los Angeles,818-990-7751,Monday :- 08:00 - 21:00 | Tuesday :- 08:00 - 21:00 | Wednesday :- 08:00 - 21:00 | Thursday :- 08:00 - 21:00 | Friday :- 08:00 - 21:00 | Saturday :- 08:00 - 21:00 | Sunday :- 08:00 - 21:00,https://locations.traderjoes.com/ca/encino/56,Trader Joes,1/21/2020,USA
713,Trader Joe'S Maple Grove (713),45.09413591,-93.43468786,12105 Elm Creek Blvd N Maple Grove MN 55369,12105 Elm Creek Blvd N,Maple Grove,MN,55369,Hennepin,763-315-1739,Monday :- 08:00 - 21:00 | Tuesday :- 08:00 - 21:00 | Wednesday :- 08:00 - 21:00 | Thursday :- 08:00 - 21:00 | Friday :- 08:00 - 21:00 | Saturday :- 08:00 - 21:00 | Sunday :- 08:00 - 21:00,https://locations.traderjoes.com/mn/maple-grove/713,Trader Joes,1/21/2020,USA
734,Trader Joe'S Norcross - Peachtree Corners (734),33.98047862,-84.21586172,5185 Peachtree Pkwy Norcross GA 30092,5185 Peachtree Pkwy,Norcross,GA,30092,Gwinnett,678-966-9236,Monday :- 09:00 - 21:00 | Tuesday :- 09:00 - 21:00 | Wednesday :- 09:00 - 21:00 | Thursday :- 09:00 - 21:00 | Friday :- 09:00 - 21:00 | Saturday :- 09:00 - 21:00 | Sunday :- 09:00 - 21:00,https://locations.traderjoes.com/ga/norcross/734,Trader Joes,1/21/2020,USA
628,Trader Joe'S Louisville Grocery (628),38.25083,-85.62997,4600 Shelbyville Rd Ste 111 Louisville KY 40207,4600 Shelbyville Rd Ste 111,Louisville,KY,40207,Jefferson,502-895-1361,Monday :- 08:00 - 21:00 | Tuesday :- 08:00 - 21:00 | Wednesday :- 08:00 - 21:00 | Thursday :- 08:00 - 21:00 | Friday :- 08:00 - 21:00 | Saturday :- 08:00 - 21:00 | Sunday :- 08:00 - 21:00,https://locations.traderjoes.com/ky/louisville/628,Trader Joes,1/21/2020,USA
71,Trader Joe'S Fair Oaks (71),38.6624846,-121.2722392,5309 Sunrise Blvd Fair Oaks CA 95628,5309 Sunrise Blvd,Fair Oaks,CA,95628,Sacramento,916-863-1744,Monday :- 08:00 - 21:00 | Tuesday :- 08:00 - 21:00 | Wednesday :- 08:00 - 21:00 | Thursday :- 08:00 - 21:00 | Friday :- 08:00 - 21:00 | Saturday :- 08:00 - 21:00 | Sunday :- 08:00 - 21:00,https://locations.traderjoes.com/ca/fair-oaks/71,Trader Joes,1/21/2020,USA
507,Trader Joe'S Nashua (507),42.70770333,-71.44139,262 Daniel Webster Hwy Nashua NH 03060,262 Daniel Webster Hwy,Nashua,NH,03060,Hillsborough,603-888-5460,Monday :- 09:00 - 21:00 | Tuesday :- 09:00 - 21:00 | Wednesday :- 09:00 - 21:00 | Thursday :- 09:00 - 21:00 | Friday :- 09:00 - 21:00 | Saturday :- 09:00 - 21:00 | Sunday :- 09:00 - 21:00,https://locations.traderjoes.com/nh/nashua/507,Trader Joes,1/21/2020,USA
547,Trader Joe'S Brooklyn - City Point (547),40.69208,-73.98342,445 Gold St Brooklyn NY 11201,445 Gold St,Brooklyn,NY,11201,Kings,718-243-0107,Monday :- 09:00 - 22:00 | Tuesday :- 09:00 - 22:00 | Wednesday :- 09:00 - 22:00 | Thursday :- 09:00 - 22:00 | Friday :- 09:00 - 22:00 | Saturday :- 09:00 - 22:00 | Sunday :- 09:00 - 22:00,https://locations.traderjoes.com/ny/brooklyn/547,Trader Joes,1/21/2020,USA
155,Trader Joe'S Medford (155),42.34063,-122.89483,55 Rossanley Dr Medford OR 97501,55 Rossanley Dr,Medford,OR,97501,Jackson,541-608-4993,Monday :- 08:00 - 21:00 | Tuesday :- 08:00 - 21:00 | Wednesday :- 08:00 - 21:00 | Thursday :- 08:00 - 21:00 | Friday :- 08:00 - 21:00 | Saturday :- 08:00 - 21:00 | Sunday :- 08:00 - 21:00,https://locations.traderjoes.com/or/medford/155,Trader Joes,1/21/2020,USA
773,Trader Joe'S Boca Raton (773),26.34228612,-80.08631347,855 S Federal Hwy Boca Raton FL 33432,855 S Federal Hwy,Boca Raton,FL,33432,Palm Beach,561-338-5031,Monday :- 08:00 - 21:00 | Tuesday :- 08:00 - 21:00 | Wednesday :- 08:00 - 21:00 | Thursday :- 08:00 - 21:00 | Friday :- 08:00 - 21:00 | Saturday :- 08:00 - 21:00 | Sunday :- 08:00 - 21:00,https://locations.traderjoes.com/fl/boca-raton/773,Trader Joes,1/21/2020,USA
106,Trader Joe'S Manhattan Beach - Rosecrans Blvd (106),33.90180161,-118.3809003,1800 Rosecrans Blvd Manhattan Beach CA 90266,1800 Rosecrans Blvd,Manhattan Beach,CA,90266,Los Angeles,310-725-9800,Monday :- 08:00 - 21:00 | Tuesday :- 08:00 - 21:00 | Wednesday :- 08:00 - 21:00 | Thursday :- 08:00 - 21:00 | Friday :- 08:00 - 21:00 | Saturday :- 08:00 - 21:00 | Sunday :- 08:00 - 21:00,https://locations.traderjoes.com/ca/manhattan-beach/106,Trader Joes,1/21/2020,USA
218,Trader Joe'S Ventura - Midtown (218),34.27200108,-119.2475908,103 S Mills Rd Ventura CA 93003,103 S Mills Rd,Ventura,CA,93003,Ventura,805-658-2664,Monday :- 08:00 - 21:00 | Tuesday :- 08:00 - 21:00 | Wednesday :- 08:00 - 21:00 | Thursday :- 08:00 - 21:00 | Friday :- 08:00 - 21:00 | Saturday :- 08:00 - 21:00 | Sunday :- 08:00 - 21:00,https://locations.traderjoes.com/ca/ventura/218,Trader Joes,1/21/2020,USA
164,Trader Joe'S Spokane N (164),47.70807959,-117.41116,5520 N Division St Spokane WA 99208,5520 N Division St,Spokane,WA,99208,Spokane,509-487-4188,Monday :- 08:00 - 21:00 | Tuesday :- 08:00 - 21:00 | Wednesday :- 08:00 - 21:00 | Thursday :- 08:00 - 21:00 | Friday :- 08:00 - 21:00 | Saturday :- 08:00 - 21:00 | Sunday :- 08:00 - 21:00,https://locations.traderjoes.com/wa/spokane/164,Trader Joes,1/21/2020,USA
122,Trader Joe'S Studio City (122),34.14354,-118.3926057,11976 Ventura Blvd Studio City CA 91604,11976 Ventura Blvd,Studio City,CA,91604,Los Angeles,818-509-0168,Monday :- 08:00 - 21:00 | Tuesday :- 08:00 - 21:00 | Wednesday :- 08:00 - 21:00 | Thursday :- 08:00 - 21:00 | Friday :- 08:00 - 21:00 | Saturday :- 08:00 - 21:00 | Sunday :- 08:00 - 21:00,https://locations.traderjoes.com/ca/studio-city/122,Trader Joes,1/21/2020,USA
208,Trader Joe'S Livermore (208),37.6791839,-121.7814944,1122 A East Stanley Blvd Livermore CA 94550,1122 A East Stanley Blvd,Livermore,CA,94550,Alameda,925-243-1947,Monday :- 08:00 - 21:00 | Tuesday :- 08:00 - 21:00 | Wednesday :- 08:00 - 21:00 | Thursday :- 08:00 - 21:00 | Friday :- 08:00 - 21:00 | Saturday :- 08:00 - 21:00 | Sunday :- 08:00 - 21:00,https://locations.traderjoes.com/ca/livermore/208,Trader Joes,1/21/2020,USA
246,Trader Joe'S San Ramon (246),37.7641646,-121.9521083,300 Market Place San Ramon CA 94583,300 Market Place,San Ramon,CA,94583,Contra Costa,925-275-8140,Monday :- 08:00 - 21:00 | Tuesday :- 08:00 - 21:00 | Wednesday :- 08:00 - 21:00 | Thursday :- 08:00 - 21:00 | Friday :- 08:00 - 21:00 | Saturday :- 08:00 - 21:00 | Sunday :- 08:00 - 21:00,https://locations.traderjoes.com/ca/san-ramon/246,Trader Joes,1/21/2020,USA
707,Trader Joe'S Grand Rapids Ã‚?? Kentwood (707),42.91253538,-85.57655615,3684 28Th St Se Kentwood MI 49512,3684 28Th St Se,Kentwood,MI,49512,Kent,616-977-1819,Monday :- 08:00 - 21:00 | Tuesday :- 08:00 - 21:00 | Wednesday :- 08:00 - 21:00 | Thursday :- 08:00 - 21:00 | Friday :- 08:00 - 21:00 | Saturday :- 08:00 - 21:00 | Sunday :- 08:00 - 21:00,https://locations.traderjoes.com/mi/kentwood/707,Trader Joes,1/21/2020,USA
78,Trader Joe'S San Francisco - 9Th St (78),37.7706155,-122.4076885,555 9Th St San Francisco CA 94103,555 9Th St,San Francisco,CA,94103,San Francisco,415-863-1292,Monday :- 08:00 - 21:00 | Tuesday :- 08:00 - 21:00 | Wednesday :- 08:00 - 21:00 | Thursday :- 08:00 - 21:00 | Friday :- 08:00 - 21:00 | Saturday :- 08:00 - 21:00 | Sunday :- 08:00 - 21:00,https://locations.traderjoes.com/ca/san-francisco/78,Trader Joes,1/21/2020,USA
426,Trader Joe'S Houston - Alabama Theater (426),29.7397718,-95.4107282,2922 S Shepherd Drive Houston TX 77098,2922 S Shepherd Drive,Houston,TX,77098,Harris,713-526-4034,Monday :- 08:00 - 21:00 | Tuesday :- 08:00 - 21:00 | Wednesday :- 08:00 - 21:00 | Thursday :- 08:00 - 21:00 | Friday :- 08:00 - 21:00 | Saturday :- 08:00 - 21:00 | Sunday :- 08:00 - 21:00,https://locations.traderjoes.com/tx/houston/426,Trader Joes,1/21/2020,USA
54,Trader Joe'S Toluca Lake (54),34.15221,-118.3517391,10130 Riverside Dr Toluca Lake CA 91602,10130 Riverside Dr,Toluca Lake,CA,91602,Los Angeles,818-762-2787,Monday :- 09:00 - 21:00 | Tuesday :- 09:00 - 21:00 | Wednesday :- 09:00 - 21:00 | Thursday :- 09:00 - 21:00 | Friday :- 09:00 - 21:00 | Saturday :- 09:00 - 21:00 | Sunday :- 09:00 - 21:00,https://locations.traderjoes.com/ca/toluca-lake/54,Trader Joes,1/21/2020,USA
402,Trader Joe'S Plano (402),33.03102182,-96.7947552,2400 Preston Rd Plano TX 75093,2400 Preston Rd,Plano,TX,75093,Collin,972-312-9538,Monday :- 08:00 - 21:00 | Tuesday :- 08:00 - 21:00 | Wednesday :- 08:00 - 21:00 | Thursday :- 08:00 - 21:00 | Friday :- 08:00 - 21:00 | Saturday :- 08:00 - 21:00 | Sunday :- 08:00 - 21:00,https://locations.traderjoes.com/tx/plano/402,Trader Joes,1/21/2020,USA
614,Trader Joe'S Bridgewater (614),40.563924,-74.55570473,315 Promenade Blvd Bridgewater NJ 08807,315 Promenade Blvd,Bridgewater,NJ,08807,Somerset,732-805-0268,Monday :- 09:00 - 21:00 | Tuesday :- 09:00 - 21:00 | Wednesday :- 09:00 - 21:00 | Thursday :- 09:00 - 21:00 | Friday :- 09:00 - 21:00 | Saturday :- 09:00 - 21:00 | Sunday :- 09:00 - 21:00,https://locations.traderjoes.com/nj/bridgewater/614,Trader Joes,1/21/2020,USA
350,Trader Joe'S Salt Lake City (350),40.76055347,-111.8728951,634 East 400 South Salt Lake City UT 84102,634 East 400 South,Salt Lake City,UT,84102,Salt Lake,801-359-2462,Monday :- 08:00 - 22:00 | Tuesday :- 08:00 - 22:00 | Wednesday :- 08:00 - 22:00 | Thursday :- 08:00 - 22:00 | Friday :- 08:00 - 22:00 | Saturday :- 08:00 - 22:00 | Sunday :- 08:00 - 22:00,https://locations.traderjoes.com/ut/salt-lake-city/350,Trader Joes,1/21/2020,USA
58,Trader Joe'S Westlake Village (58),34.16323278,-118.8270367,3835 E Thousand Oaks Blvd Westlake Village CA 91362,3835 E Thousand Oaks Blvd,Westlake Village,CA,91362,Ventura,805-494-5040,Monday :- 08:00 - 21:00 | Tuesday :- 08:00 - 21:00 | Wednesday :- 08:00 - 21:00 | Thursday :- 08:00 - 21:00 | Friday :- 08:00 - 21:00 | Saturday :- 08:00 - 21:00 | Sunday :- 08:00 - 21:00,https://locations.traderjoes.com/ca/westlake-village/58,Trader Joes,1/21/2020,USA
250,Trader Joe'S Usc Village (250),34.02659598,-118.28397,3131 S Hoover Street Los Angeles CA 90089,3131 S Hoover Street,Los Angeles,CA,90089,Los Angeles,213-749-1497,Monday :- 08:00 - 22:00 | Tuesday :- 08:00 - 22:00 | Wednesday :- 08:00 - 22:00 | Thursday :- 08:00 - 22:00 | Friday :- 08:00 - 22:00 | Saturday :- 08:00 - 22:00 | Sunday :- 08:00 - 22:00,https://locations.traderjoes.com/ca/los-angeles/250,Trader Joes,1/21/2020,USA
